_id,pin,address,block_lot,sale_price,act77_gent_date,last_payment_date,treasury_sale_date,partition_latest_sale_date,latitude,longitude,neighborhood_name,council_district,ward,fire_zone,police_zone,dpw_streets,dpw_enviro,dpw_parks
281326,0026N00028000000,"3371 MILWAUKEE ST, PITTSBURGH, PA 15219",0026N00028,1000,1976-12-30,1976-12-30,2002-10-31,1978-09-20,40.453989193251054,-79.96225482896355,Upper Hill,6,5,2-22,2,3,Central,Schenley
281327,0008H00030000000,"300 SANDUSKY ST, PITTSBURGH, PA 15212",0008H00030,0,,,,1978-10-03,40.449805690065176,-80.00187020824833,North Shore,1,22,1-20,1,6,Northern,Riverview
281328,0010F00198000000,"2201 BEDFORD AVE, PITTSBURGH, PA 15219",0010F00198,5000,,,,1991-08-22,40.449587293870486,-79.97828093257203,Bedford Dwellings,6,5,2-5,2,3,Central,Schenley
281329,0091N00241000000," CIRCLE AVE, PITTSBURGH, PA 15207",0091N00241,559,1983-02-08,1983-02-08,,1991-11-08,40.386282947639934,-79.93016140910211,New Homestead,5,31,4-20,4,3,Eastern,Frick
281330,0124N00090000000,"145 MAYFLOWER ST, PITTSBURGH, PA 15206",0124N00090,7532,1987-08-27,1987-08-27,1993-06-21,1991-09-06,40.46336853510718,-79.91457883746777,Larimer,9,12,3-10,5,2,Eastern,Highland
281331,0048N00099000000," ELBOW ST, PITTSBURGH, PA 15212",0048N00099,3105,1988-09-02,1988-09-02,,1991-11-08,40.464706431832965,-79.98069657837294,Troy Hill,1,24,1-2,1,1,Northern,Riverview
281332,0047L00245000000,"ZOLLER ST, PITTSBURGH, PA 15212",0047L00245,10,1989-02-08,1989-02-08,,1991-07-26,40.46538142734935,-79.98729694647666,Spring Hill-City View,1,24,1-11,1,1,Northern,Riverview
281333,0021P00021000000," OTTERSON AVE, PITTSBURGH, PA 15204",0021P00021,365,1989-04-21,1989-04-21,,1991-11-08,40.453373530330296,-80.04497895674373,Sheraden,2,20,1-16,6,5,Northern,Emerald
281334,0005L00067000000,"HALLOCK ST, PITTSBURGH, PA 15211",0005L00067,10,1989-02-08,1989-02-08,,1991-07-26,40.42821513335566,-80.02046461262891,Duquesne Heights,2,20,4-1,3,5,Southern,Emerald
281335,0006P00225000000,"FINGAL ST, PITTSBURGH, PA 15211",0006P00225,10,1989-04-25,1989-04-25,,1991-07-26,40.435841430804295,-80.02788082564163,Duquesne Heights,2,19,4-1,3,5,Southern,Emerald
281336,0005L00065000000,"HALLOCK ST, PITTSBURGH, PA 15211",0005L00065,10,1991-08-22,1991-08-22,,1991-07-26,40.42829473650198,-80.02035376788612,Duquesne Heights,2,20,4-1,3,5,Southern,Emerald
281337,0005G00007000000,"HALLOCK ST, PITTSBURGH, PA 15211",0005G00007,10,1991-08-22,1991-08-22,,1991-07-26,40.42866527994981,-80.02059291827915,Duquesne Heights,2,20,4-1,3,5,Southern,Emerald
281338,0032E00077000000," WALDE ST, PITTSBURGH, PA 15210",0032E00077,2405,1979-01-29,1979-01-29,,1991-04-08,40.410752989860775,-79.97948284873561,Mt. Oliver,3,16,4-8,3,4,Southern,Schenley
281339,0035S00155000000," CAPITAL AVE, PITTSBURGH, PA 15226",0035S00155,3226,,,1993-09-20,1991-04-08,40.404358646994645,-80.01825015586766,Brookline,4,19,4-26,6,4,Southern,Emerald
281340,0024A00209000000,"QUEEN ST, PITTSBURGH, PA 15212",0024A00209,100,2001-09-19,2001-09-19,2004-12-16,1981-07-15,40.46067262004555,-79.99776571461838,Spring Hill-City View,1,24,1-24,1,1,Northern,Riverview
281341,0048F00138000000,"1905 LOOKOUT ST, PITTSBURGH, PA 15212",0048F00138,4027,2002-02-27,2004-04-16,2006-03-31,2006-03-31,40.46896962634886,-79.97707059373465,Troy Hill,1,24,1-2,1,1,Northern,Riverview
281342,0077K00033000000,"3 MILROY ST, PITTSBURGH, PA 15214",0077K00033,1999,2002-07-31,2004-03-01,2006-12-04,2006-12-04,40.476453445776315,-80.01114710212394,Perry North,1,26,1-15,1,1,Northern,Riverview
281343,0045M00222000A00,"72 STRAUSS ST, PITTSBURGH, PA 15214",0045M00222A,746,1992-03-04,1992-03-04,2006-09-22,2006-09-22,40.465700783377216,-80.01939149117185,Perry South,6,26,1-12,1,1,Northern,Riverview
281344,0045M00249000000,"32 HARLAN AVE, PITTSBURGH, PA 15214",0045M00249,977,1978-01-11,1978-01-11,2006-06-23,2006-06-23,40.46557979927377,-80.0189360872952,Perry South,6,26,1-12,1,1,Northern,Riverview
281345,0045M00227000000,"2407 STRAUSS ST, PITTSBURGH, PA 15214",0045M00227,786,1981-04-30,1981-04-30,2006-06-23,2006-06-23,40.46542958261052,-80.01948491126915,Perry South,6,26,1-12,1,1,Northern,Riverview
281346,0045M00227000A00,"STRAUSS ST, PITTSBURGH, PA 15214",0045M00227A,733,1978-03-20,1978-03-20,2006-09-22,2006-09-22,40.46545256023568,-80.01963447176065,Perry South,6,26,1-12,1,1,Northern,Riverview
281347,0045M00216000000,"STRAUSS ST, PITTSBURGH, PA 15214",0045M00216,850,1981-12-28,1981-12-28,2006-06-23,2006-06-23,40.465925073270455,-80.0191012315784,Perry South,6,26,1-12,1,1,Northern,Riverview
281348,0045M00244000000,"22 HARLAN AVE, PITTSBURGH, PA 15214",0045M00244,573,1992-08-17,1992-08-17,2006-06-23,2006-06-23,40.465330347869646,-80.01915483589265,Perry South,6,26,1-12,1,1,Northern,Riverview
281349,0045M00242000000,"20 HARLAN AVE, PITTSBURGH, PA 15214",0045M00242,840,1989-01-23,1989-01-23,2006-06-23,2006-06-23,40.46524049494724,-80.01921102473666,Perry South,6,26,1-12,1,1,Northern,Riverview
281350,0045M00213000000,"STRAUSS ST, PITTSBURGH, PA 15214",0045M00213,767,,,2006-06-23,2006-06-23,40.466050201259456,-80.01892149311834,Perry South,6,26,1-12,1,1,Northern,Riverview
281351,0076F00124000000,"1024 HALL ST, PITTSBURGH, PA 15212",0076F00124,5921,2001-03-15,2001-03-15,2006-09-22,2006-09-22,40.47772381539869,-80.0274275344829,Marshall-Shadeland,1,27,1-14,1,1,Northern,Riverview
281352,0045A00182000A00,"2803 FREDERICK ST, PITTSBURGH, PA 15212",0045A00182A,1899,2001-04-09,2006-01-18,2006-12-04,2006-12-04,40.47012150638209,-80.02992562617415,Marshall-Shadeland,1,27,1-14,1,1,Northern,Riverview
281353,0076N00014000000,"1357 GEYER AVE, PITTSBURGH, PA 15212",0076N00014,5289,2000-07-19,2000-07-19,2006-12-04,2006-12-04,40.47385566754115,-80.03259822277269,Marshall-Shadeland,1,27,1-14,1,1,Northern,Riverview
281354,0047E00346000000,"2133 LAPPE LN, PITTSBURGH, PA 15212",0047E00346,1684,2000-02-10,2004-02-20,2006-09-22,2006-09-22,40.467932920670194,-79.99635918380564,Spring Hill-City View,1,26,1-11,1,1,Northern,Riverview
281355,0124N00045000000,"118 MAYFLOWER ST, PITTSBURGH, PA 15206",0124N00045,8438,1991-07-23,1991-07-23,2006-09-22,2006-09-22,40.46378742263494,-79.91577310208838,Larimer,9,12,3-10,5,2,Eastern,Highland
281356,0124N00106000000,"119 MAYFLOWER ST, PITTSBURGH, PA 15206",0124N00106,2024,1993-05-21,1993-05-21,2006-12-04,2006-12-04,40.46410798355244,-79.9153236837979,Larimer,9,12,3-10,5,2,Eastern,Highland
281357,0124J00075000000,"503 LENORA ST, PITTSBURGH, PA 15206",0124J00075,858,1992-02-11,1992-02-11,2006-12-04,2006-12-04,40.46638199241633,-79.91538464211862,Larimer,9,12,3-12,5,2,Eastern,Highland
281358,0124N00032000000,"125 AUBURN ST, PITTSBURGH, PA 15206",0124N00032,1525,2002-09-18,2003-07-15,2006-09-22,2006-09-22,40.463387265809175,-79.91588580022302,Larimer,9,12,3-10,5,2,Eastern,Highland
281359,0124N00141000000,"114 CARVER ST, PITTSBURGH, PA 15206",0124N00141,2521,1997-01-31,1997-01-31,2006-12-04,2006-12-04,40.464223747904654,-79.91489019687846,Larimer,9,12,3-10,5,2,Eastern,Highland
281360,0124N00043000000,"114 MAYFLOWER ST, PITTSBURGH, PA 15206",0124N00043,5530,1995-01-06,1995-01-06,2006-09-22,2006-09-22,40.46385337625812,-79.91588098755328,Larimer,9,12,3-10,5,2,Eastern,Highland
281361,0124N00142000000,"116 CARVER ST, PITTSBURGH, PA 15206",0124N00142,613,1991-03-20,1991-03-20,2006-12-04,2006-12-04,40.46417488975448,-79.91483703214665,Larimer,9,12,3-10,5,2,Eastern,Highland
281362,0174S00016000000,"7824 KELLY ST, PITTSBURGH, PA 15208",0174S00016,14937,2000-08-04,2006-03-06,2006-06-23,2006-06-23,40.452809660239474,-79.88630023125022,Homewood South,9,13,3-17,5,2,Eastern,Frick
281363,0134E00350000000,"SLATE ST, PITTSBURGH, PA 15207",0134E00350,2036,1993-01-29,1993-01-29,2006-09-22,2006-09-22,40.38209362449504,-79.92980490273807,Hays,5,31,4-20,4,3,Eastern,Frick
281364,0056N00005000000,"301 W ELIZABETH ST, PITTSBURGH, PA 15207",0056N00005,14958,2002-06-12,2002-06-12,2006-09-22,2006-09-22,40.40653952908295,-79.94544650345513,Hazelwood,5,15,2-13,4,3,Eastern,Frick
281365,0057C00218000000,"64 ALMEDA ST, PITTSBURGH, PA 15207",0057C00218,5877,2000-06-27,2003-07-09,2006-12-04,2006-12-04,40.403294125218586,-79.93913806779028,Hazelwood,5,15,2-13,4,3,Eastern,Frick
281366,0056M00017000000,"131 ASHTON AVE, PITTSBURGH, PA 15207",0056M00017,2288,2002-02-22,2005-08-29,2006-12-04,2006-12-04,40.40661457158188,-79.93690570422834,Hazelwood,5,15,2-13,4,3,Eastern,Frick
281367,0087K00302000000,"3635 BEECHWOOD BLVD, PITTSBURGH, PA 15217",0087K00302,4195,1991-02-20,1991-02-20,2006-09-22,2006-09-22,40.42640225825996,-79.92704029399118,Greenfield,5,15,2-15,4,3,Eastern,Frick
281368,0034G00077000000,"400 TIMBERLAND AVE, PITTSBURGH, PA 15226",0034G00077,2873,1998-01-27,1998-01-27,2006-09-22,2006-09-22,40.41009007159992,-80.0068133311115,Bon Air,4,18,4-18,3,4,Southern,Emerald
281369,0060M00089000000,"1810 LEOLYN ST, PITTSBURGH, PA 15210",0060M00089,5366,2001-04-11,2003-05-30,2006-09-22,2006-09-22,40.397146030558645,-79.98558338440473,Carrick,4,29,4-12,3,4,Southern,Schenley
281370,0014K00269000000,"315 CHARLES ST, PITTSBURGH, PA 15210",0014K00269,5554,2001-03-29,2001-03-29,2006-09-22,2006-09-22,40.41670439414274,-79.99382270042409,Knoxville,3,30,4-21,3,4,Southern,Emerald
281371,0033A00283000000,"446 ARABELLA ST, PITTSBURGH, PA 15210",0033A00283,1888,2002-06-10,2006-05-19,2006-09-22,2006-09-22,40.411716435262456,-79.99653426993241,Knoxville,3,30,4-7,3,4,Southern,Emerald
281372,0095N00022000000,"41 SELDON ST, PITTSBURGH, PA 15234",0095N00022,2301,2002-07-22,2004-03-18,2006-06-23,2006-06-23,40.385240540273685,-79.99895750656323,Overbrook,4,32,4-25,3,4,Southern,Schenley
281373,0139D00035000000,"GEORGETTE ST, PITTSBURGH, PA 15234",0139D00035,961,,,2006-06-23,2006-06-23,40.38354379254335,-80.00330419944558,Overbrook,4,32,4-25,3,4,Southern,Schenley
281374,0014E00012000000,"17 CURTIN AVE, PITTSBURGH, PA 15210",0014E00012,342,2002-05-02,2003-03-31,2006-12-04,2006-12-04,40.42036267380893,-79.99915217502242,Beltzhoover,3,18,4-21,3,4,Southern,Emerald
281375,0014J00162000000,"618 BELTZHOOVER AVE, PITTSBURGH, PA 15210",0014J00162,1319,1992-03-30,1992-03-30,2006-12-04,2006-12-04,40.41681386037804,-79.99750161602388,Beltzhoover,3,18,4-21,3,4,Southern,Emerald
281376,0015H00150000000,"346 CLIMAX ST, PITTSBURGH, PA 15210",0015H00150,9164,1996-01-23,1996-01-23,2006-12-04,2006-12-04,40.41971942651002,-80.00064503840505,Beltzhoover,3,18,4-21,3,4,Southern,Emerald
281377,0015K00183000000,"19 LAFFERTY AVE, PITTSBURGH, PA 15210",0015K00183,2702,2002-05-06,2005-08-05,2006-06-23,2006-06-23,40.417348014988505,-80.00939635369083,Beltzhoover,3,18,4-16,3,4,Southern,Emerald
281378,0029P00425000000,"MONOGAHELA RIVER, PITTSBURGH, PA 15207",0029P00425,0,,,,2006-03-09,40.424630766036856,-79.95884515323696,South Side Flats,3,16,4-24,3,4,Southern,Schenley
281379,0007J00024000000,"637 CORFU ST, PITTSBURGH, PA 15220",0007J00024,339000,2002-03-08,2006-01-31,,2006-01-23,40.44560601658776,-80.03201941906688,Elliott,2,20,1-17,6,5,Northern,Emerald
281380,0007J00036000000,"657 CORFU ST, PITTSBURGH, PA 15220",0007J00036,0,2002-03-05,2006-08-22,,2006-06-08,40.4458174418513,-80.03271855471756,Elliott,2,20,1-17,6,5,Northern,Emerald
281381,0007J00022000000,"635 CORFU ST, PITTSBURGH, PA 15220",0007J00022,1000,2002-04-09,2005-02-09,,2006-01-23,40.44552977858935,-80.03194367497322,Elliott,2,20,1-17,6,5,Northern,Emerald
281382,0020P00179000000,"1022 CRUCIBLE ST, PITTSBURGH, PA 15220",0020P00179,1724,2002-12-30,2004-03-30,2006-09-22,2006-09-22,40.44399366548518,-80.04238108233548,Elliott,2,20,1-17,6,5,Northern,Emerald
281383,0020L00192000000,"1044 MARENA ST, PITTSBURGH, PA 15220",0020L00192,5810,1999-01-29,1999-01-29,2006-12-04,2006-12-04,40.44713723789815,-80.03857042545128,Elliott,2,20,1-17,6,5,Northern,Emerald
281384,0007N00238000000,"627 CORFU ST, PITTSBURGH, PA 15220",0007N00238,0,2002-02-22,2006-04-27,,2006-06-08,40.44538333873636,-80.03184763455249,Elliott,2,20,1-17,6,5,Northern,Emerald
281385,0042M00144000000,"3024 GLEN MAWR AVE, PITTSBURGH, PA 15204",0042M00144,2050,2000-07-31,2004-06-28,2006-09-22,2006-09-22,40.45744185914656,-80.05309412519757,Sheraden,2,20,1-16,6,5,Northern,Emerald
281386,0040S00093000000,"1936 NOBLESTOWN RD, PITTSBURGH, PA 15205",0040S00093,1437,2004-01-15,2004-02-03,2006-12-04,2006-12-04,40.43519818430413,-80.05096725505759,Westwood,2,28,1-18,6,5,Northern,Emerald
281387,0006E00097000000,"GREENLEAF ST, PITTSBURGH, PA 15211",0006E00097,3606,1982-11-12,1982-11-12,2006-06-23,2006-06-23,40.43978359689248,-80.03087294027995,Duquesne Heights,2,19,4-1,3,5,Southern,Emerald
281388,0005L00043000000,"HALLOCK ST, PITTSBURGH, PA 15211",0005L00043,3292,1986-04-17,1986-04-17,2006-06-23,2006-06-23,40.42795796044159,-80.02208189917452,Duquesne Heights,2,20,4-1,3,5,Southern,Emerald
281389,0005L00055000000,"HALLOCK ST, PITTSBURGH, PA 15211",0005L00055,3304,1982-01-08,1982-01-08,2006-06-23,2006-06-23,40.428224170903285,-80.02125920803894,Duquesne Heights,2,20,4-1,3,5,Southern,Emerald
281390,0115B00110000000," STOLTZ ST, PITTSBURGH, PA 15214",0115B00110,913,1978-08-18,1978-08-18,1995-09-29,1995-09-29,40.489671855894805,-80.0250499205936,Perry North,1,26,1-15,1,1,Northern,Riverview
281391,0115B00104000000," STOLTZ ST, PITTSBURGH, PA 15214",0115B00104,1115,1978-08-18,1978-08-18,1995-09-29,1995-09-29,40.48946420129624,-80.02555452086163,Perry North,1,26,1-15,1,1,Northern,Riverview
281392,0077K00122000000," MILROY ST, PITTSBURGH, PA 15214",0077K00122,3350,1980-05-19,1980-05-19,1995-09-29,1995-09-29,40.47633641039632,-80.00935332204318,Perry South,1,26,1-23,1,1,Northern,Riverview
281393,0045J00290000000,"2612 BARTOLD ST, PITTSBURGH, PA 15212",0045J00290,5994,1985-01-28,1985-01-28,1995-04-24,1995-04-24,40.467227402356976,-80.03060915946591,Marshall-Shadeland,1,27,1-14,1,1,Northern,Riverview
281394,0045J00289000000,"2614 BARTOLD ST, PITTSBURGH, PA 15212",0045J00289,864,1993-07-19,1993-07-19,1995-04-24,1995-04-24,40.46729875546509,-80.03063077477535,Marshall-Shadeland,1,27,1-14,1,1,Northern,Riverview
281395,0076N00131000000,"3112 SHADELAND AVE, PITTSBURGH, PA 15212",0076N00131,3318,1989-02-03,1989-02-03,1995-04-24,1995-04-24,40.47368455641861,-80.03124744358524,Marshall-Shadeland,1,27,1-14,1,1,Northern,Riverview
281396,0021N00179000000," STAFFORD ST, PITTSBURGH, PA 15204",0021N00179,1741,1983-02-28,1983-02-28,1995-12-14,1995-12-14,40.45446647238303,-80.04867371882135,Sheraden,2,20,1-16,6,5,Northern,Emerald
281397,0021N00262000000," STAFFORD ST, PITTSBURGH, PA 15204",0021N00262,1276,1977-11-02,1977-11-02,,1995-12-14,40.45472335099229,-80.0482930169703,Sheraden,2,20,1-16,6,5,Northern,Emerald
281398,0042L00301000000,"SURBAN AVE, PITTSBURGH, PA 15204",0042L00301,5000,1993-10-01,1993-10-01,,1995-11-09,40.45543061110969,-80.0568145207258,Sheraden,2,20,1-16,6,5,Northern,Emerald
281399,0014L00280000000,"1629 ARLINGTON AVE, PITTSBURGH, PA 15210",0014L00280,1,1993-04-05,1993-04-05,,1995-06-13,40.418232098044,-79.98711061192836,South Side Slopes,3,17,4-6,3,4,Southern,Schenley
281400,0003K00009000000," ARLINGTON AVE, PITTSBURGH, PA 15210",0003K00009,2364,1991-10-30,1991-10-30,1995-09-29,1995-09-29,40.42730537103369,-79.99509752690032,Allentown,3,18,4-5,3,4,Southern,Emerald
281401,0015L00305000000,"401 GEARING AVE, PITTSBURGH, PA 15210",0015L00305,17529,1991-12-03,1991-12-03,1995-12-14,1995-12-14,40.41835023969573,-80.00504037662125,Beltzhoover,3,18,4-16,3,4,Southern,Emerald
281402,0015L00304000000,"403 GEARING AVE, PITTSBURGH, PA 15210",0015L00304,2428,1987-10-28,1987-10-28,1995-04-24,1995-04-24,40.418249366541644,-80.0050035123939,Beltzhoover,3,18,4-16,3,4,Southern,Emerald
281403,0094E00242000000," DIEHL AVE, PITTSBURGH, PA 15210",0094E00242,1041,1992-07-24,1992-07-24,1995-09-29,1995-09-29,40.39061286728997,-79.97992367453345,Carrick,4,29,4-15,3,4,Southern,Schenley
281404,0055S00174000000," INDUS ST, PITTSBURGH, PA 15207",0055S00174,1538,,,1995-09-29,1995-09-29,40.41523455003895,-79.9359399170327,Hazelwood,5,15,2-13,4,3,Eastern,Frick
281405,0055S00164000000," LUDLOW ST, PITTSBURGH, PA 15207",0055S00164,1043,1981-09-29,1981-09-29,1995-09-29,1995-09-29,40.41483881369109,-79.93560571110363,Hazelwood,5,15,2-13,4,3,Eastern,Frick
281406,0057C00124000000,"5503 2ND AVE, PITTSBURGH, PA 15207",0057C00124,2786,1986-10-22,1986-10-22,1995-04-24,1995-04-24,40.401755200535256,-79.94013303174627,Hazelwood,5,15,2-13,4,3,Eastern,Frick
281407,0055S00176000000," INDUS ST, PITTSBURGH, PA 15207",0055S00176,1785,,,1995-09-29,1995-09-29,40.415264572028555,-79.93581959509386,Hazelwood,5,15,2-13,4,3,Eastern,Frick
281408,0055S00170000000," LUDLOW ST, PITTSBURGH, PA 15207",0055S00170,1043,,,1995-09-29,1995-09-29,40.4147685127874,-79.93587307535296,Hazelwood,5,15,2-13,4,3,Eastern,Frick
281409,0055S00169000000," LUDLOW ST, PITTSBURGH, PA 15207",0055S00169,2247,1993-09-27,1993-09-27,1995-09-29,1995-09-29,40.414801483653946,-79.93573601193236,Hazelwood,5,15,2-13,4,3,Eastern,Frick
281410,0010D00097000000,"2915 BEDFORD AVE, PITTSBURGH, PA 15219",0010D00097,6167,1987-08-28,1987-08-28,1995-12-14,1995-12-14,40.45262757287565,-79.9670041745134,Middle Hill,6,5,2-5,2,3,Central,Schenley
281411,0022F00032000000,"1401 NIXON ST, PITTSBURGH, PA 15233",0022F00032,4206,1985-10-09,1985-10-09,1995-12-14,1995-12-14,40.45934858318789,-80.02820037891814,Manchester,6,21,1-8,1,1,Northern,Riverview
281412,0022F00117000000,"1412 WARNER ST, PITTSBURGH, PA 15233",0022F00117,627,1993-04-29,1993-04-29,1995-12-14,1995-12-14,40.45816107709808,-80.02822794732755,Manchester,6,21,1-8,1,1,Northern,Riverview
281413,0022F00029000B00," MANHATTAN ST, PITTSBURGH, PA 15233",0022F00029B,2223,1984-11-30,1984-11-30,1995-12-14,1995-12-14,40.45923259362991,-80.02820423158606,Manchester,6,21,1-8,1,1,Northern,Riverview
281414,0022E00304000000,"1429 NIXON ST, PITTSBURGH, PA 15233",0022E00304,8638,1976-03-31,1976-03-31,1995-12-14,1995-12-14,40.4590855386617,-80.02910188597406,Manchester,6,21,1-8,1,1,Northern,Riverview
281415,0022F00124000000,"1819 MANHATTAN ST, PITTSBURGH, PA 15233",0022F00124,5850,,,1995-12-14,1995-12-14,40.45827345681722,-80.02785867925226,Manchester,6,21,1-8,1,1,Northern,Riverview
281416,0022K00068000000,"1703 FULTON ST, PITTSBURGH, PA 15233",0022K00068,3397,1988-05-13,1988-05-13,1995-12-14,1995-12-14,40.45720757515857,-80.02593019940093,Manchester,6,21,1-8,1,1,Northern,Riverview
281417,0022F00119000000,"1406 WARNER ST, PITTSBURGH, PA 15233",0022F00119,3274,1993-03-04,1993-03-04,1995-12-14,1995-12-14,40.458189463324985,-80.02807425705846,Manchester,6,21,1-8,1,1,Northern,Riverview
281418,0022F00126000000," MANHATTAN ST, PITTSBURGH, PA 15233",0022F00126,1003,1992-02-29,1992-02-29,1995-12-14,1995-12-14,40.45817903805936,-80.02782870500185,Manchester,6,21,1-8,1,1,Northern,Riverview
281419,0022E00343000000,"1414 NIXON ST, PITTSBURGH, PA 15233",0022E00343,2428,1990-08-20,1990-08-20,1995-12-14,1995-12-14,40.459625494474025,-80.0287772661795,Manchester,6,21,1-8,1,1,Northern,Riverview
281420,0022L00098000000,"1212 FRANKLIN ST, PITTSBURGH, PA 15233",0022L00098,2232,1994-02-10,1994-02-10,1995-12-14,1995-12-14,40.45668772137638,-80.02356662013005,Manchester,6,21,1-8,1,1,Northern,Riverview
281421,0022F00125000000,"1817 MANHATTAN ST, PITTSBURGH, PA 15233",0022F00125,5813,,,1995-12-14,1995-12-14,40.45822774275021,-80.02784421576764,Manchester,6,21,1-8,1,1,Northern,Riverview
281422,0046N00232000000,"2134 WILSON AVE, PITTSBURGH, PA 15214",0046N00232,981,1993-04-01,1993-04-01,1995-04-24,1995-04-24,40.4647867138456,-80.0123506661103,Perry South,6,25,1-10,1,1,Northern,Riverview
281423,0046N00214000000,"2012 DRUM ST, PITTSBURGH, PA 15214",0046N00214,8373,1990-01-17,1990-01-17,1995-04-24,1995-04-24,40.464420003881344,-80.01351517265027,Perry South,6,25,1-10,1,1,Northern,Riverview
281424,0046N00231000000,"2136 WILSON AVE, PITTSBURGH, PA 15214",0046N00231,2221,1992-04-30,1992-04-30,1995-04-24,1995-04-24,40.464839620610135,-80.01236802291787,Perry South,6,25,1-12,1,1,Northern,Riverview
281425,0045S00111000000,"616 CHAUTAUQUA ST, PITTSBURGH, PA 15214",0045S00111,1336,1993-01-12,1993-01-12,1995-04-24,1995-04-24,40.46451021530141,-80.01725276621185,Perry South,6,25,1-12,1,1,Northern,Riverview
281426,0046N00230000000,"2200 WILSON AVE, PITTSBURGH, PA 15214",0046N00230,4770,1984-02-09,1984-02-09,1995-04-24,1995-04-24,40.46489691837658,-80.01241254207427,Perry South,6,26,1-12,1,1,Northern,Riverview
281427,0046E00246000000,"124 MAYWOOD ST, PITTSBURGH, PA 15214",0046E00246,3763,1991-10-25,1991-10-25,1995-09-29,1995-09-29,40.46801978906865,-80.01209319704073,Perry South,6,26,1-12,1,1,Northern,Riverview
281428,0046E00198000000," CHESTER AVE, PITTSBURGH, PA 15214",0046E00198,1315,1991-06-28,1991-06-28,1995-09-29,1995-09-29,40.4674791176064,-80.01306558389494,Perry South,6,26,1-12,1,1,Northern,Riverview
281429,0046J00134000000,"411 BURGESS ST, PITTSBURGH, PA 15214",0046J00134,1442,1992-02-10,1992-02-10,1995-04-24,1995-04-24,40.465651320373766,-80.01477623081725,Perry South,6,26,1-12,1,1,Northern,Riverview
281430,0050K00088000000,"4919 BROAD ST, PITTSBURGH, PA 15224",0050K00088,3221,1988-02-26,1988-02-26,1995-12-14,1995-12-14,40.46691554046033,-79.94411418133592,Garfield,9,10,3-4,5,2,Central,Highland
281431,0083J00136000000,"5511 BROAD ST, PITTSBURGH, PA 15206",0083J00136,7435,1987-02-09,1987-02-09,1995-04-24,1995-04-24,40.46515946140238,-79.93120638394697,Garfield,9,11,3-4,5,2,Central,Highland
281432,0124P00267000000,"6503 SHETLAND AVE, PITTSBURGH, PA 15206",0124P00267,7332,1983-07-18,1983-07-18,1995-12-14,1995-12-14,40.46348423148702,-79.90884447309132,Larimer,9,12,3-12,5,2,Eastern,Highland
281433,0124P00268000000,"6505 SHETLAND AVE, PITTSBURGH, PA 15206",0124P00268,6152,1983-03-31,1983-03-31,1995-12-14,1995-12-14,40.46343507151156,-79.90878964997782,Larimer,9,12,3-12,5,2,Eastern,Highland
281434,0125H00065000000,"919 GERRITT ST, PITTSBURGH, PA 15208",0125H00065,1312,1991-10-25,1991-10-25,1995-12-14,1995-12-14,40.45956118798456,-79.90219223694135,Homewood West,9,12,3-17,5,2,Eastern,Highland
281435,0125H00067000000,"919 GERRITT ST, PITTSBURGH, PA 15208",0125H00067,8111,1993-08-26,1993-08-26,1995-12-14,1995-12-14,40.45951237341298,-79.90219984374755,Homewood West,9,12,3-17,5,2,Eastern,Highland
281436,0125H00066000000,"921 GERRITT ST, PITTSBURGH, PA 15208",0125H00066,1773,1991-10-25,1991-10-25,1995-12-14,1995-12-14,40.459608266268006,-79.90217738283606,Homewood West,9,12,3-17,5,2,Eastern,Highland
281437,0124M00003000000,"6625 ROWAN ST, PITTSBURGH, PA 15206",0124M00003,8079,,,1995-12-14,1995-12-14,40.46502541061184,-79.9035059504554,Lincoln-Lemington-Belmar,9,12,3-15,5,2,Eastern,Highland
281438,0231K00200000000,"8404 BRICELYN ST, PITTSBURGH, PA 15221",0231K00200,747,,,1995-09-29,1995-09-29,40.45620183837729,-79.87670668084057,East Hills,9,13,3-17,5,2,Eastern,Frick
281439,0174H00229000000," WHEELER ST, PITTSBURGH, PA 15208",0174H00229,4912,1978-01-25,1978-01-25,1995-09-29,1995-09-29,40.45888959103872,-79.88449704349294,Homewood North,9,13,3-17,5,2,Eastern,Highland
281440,0024E00133000000,"1021 CHESTNUT ST, PITTSBURGH, PA 15212",0024E00133,9132,1995-08-07,1995-08-07,2002-04-05,2002-04-05,40.45762460189962,-79.99561172046816,East Allegheny,1,23,1-5,1,1,Northern,Riverview
281441,0114L00182000000,"3811 CALIFORNIA AVE, PITTSBURGH, PA 15212",0114L00182,3359,1997-08-14,1997-08-14,2002-07-11,2002-07-11,40.484391919603866,-80.04072823985406,Brighton Heights,1,27,1-14,1,1,Northern,Riverview
281442,0075H00035000000,"3441 MC CLURE AVE, PITTSBURGH, PA 15212",0075H00035,3085,1996-07-25,1996-07-25,2002-07-11,2002-07-11,40.4782223766901,-80.03611631615303,Brighton Heights,1,27,1-14,1,1,Northern,Riverview
281443,0114D00265000000,"SAN PEDRO ST, PITTSBURGH, PA 15212",0114D00265,2151,1986-01-30,1986-01-30,2002-07-11,2002-07-11,40.49006871596951,-80.0354840640295,Brighton Heights,1,27,1-14,1,1,Northern,Riverview
281444,0075L00292000000,"3300 FLEMING AVE, PITTSBURGH, PA 15212",0075L00292,3069,1993-09-13,1993-09-13,2002-07-11,2002-07-11,40.47542289237809,-80.03734806646251,Brighton Heights,1,27,1-14,1,1,Northern,Riverview
281445,0115A00188000000,"FLORA ST, PITTSBURGH, PA 15212",0115A00188,2588,1996-09-06,1996-09-06,2002-07-11,2002-07-11,40.49048620198488,-80.02982915564972,Brighton Heights,1,27,1-14,1,1,Northern,Riverview
281446,0115N00035000000,"PURDUE ST, PITTSBURGH, PA 15212",0115N00035,1927,1997-02-05,1997-02-05,2002-07-11,2002-07-11,40.48220987837406,-80.02900238932845,Brighton Heights,1,27,1-14,1,1,Northern,Riverview
281447,0114H00108000000," DREXEL RD, PITTSBURGH, PA 15212",0114H00108,1470,1986-01-07,1986-01-07,2002-09-27,2002-09-27,40.48886613220777,-80.03637940924737,Brighton Heights,1,27,1-14,1,1,Northern,Riverview
281448,0075M00205000000,"3322 GASS AVE, PITTSBURGH, PA 15212",0075M00205,1846,1995-02-10,1995-02-10,2002-09-27,2002-09-27,40.47690718301921,-80.03424955532658,Brighton Heights,1,27,1-14,1,1,Northern,Riverview
281449,0115B00326000000,"21 TULIA ST, PITTSBURGH, PA 15212",0115B00326,1529,1989-01-30,1989-01-30,2002-09-27,2002-09-27,40.49043388933107,-80.02812148633203,Brighton Heights,1,27,1-14,1,1,Northern,Riverview
281450,0115A00170000000," KARWICH ST, PITTSBURGH, PA 15212",0115A00170,1430,1996-09-06,1996-09-06,2002-09-27,2002-09-27,40.49045352536777,-80.02897342330867,Brighton Heights,1,27,1-14,1,1,Northern,Riverview
281451,0115B00325000000,"74 TULIA ST, PITTSBURGH, PA 15212",0115B00325,1532,1989-01-30,1989-01-30,2002-09-27,2002-09-27,40.49036710432596,-80.02811749588871,Brighton Heights,1,27,1-14,1,1,Northern,Riverview
281452,0115A00178000000," FLORA ST, PITTSBURGH, PA 15212",0115A00178,1794,1990-02-20,1990-02-20,2002-09-27,2002-09-27,40.49048293852756,-80.02928054233038,Brighton Heights,1,27,1-14,1,1,Northern,Riverview
281453,0115A00164000000," KARWICH ST, PITTSBURGH, PA 15212",0115A00164,1760,1996-09-06,1996-09-06,2002-09-27,2002-09-27,40.49016590083125,-80.02895689550505,Brighton Heights,1,27,1-14,1,1,Northern,Riverview
281454,0115A00140000000," HALLER ST, PITTSBURGH, PA 15212",0115A00140,2115,1996-09-06,1996-09-06,2002-09-27,2002-09-27,40.49012368586841,-80.02956760658417,Brighton Heights,1,27,1-14,1,1,Northern,Riverview
281455,0115B00327000000," TULIA ST, PITTSBURGH, PA 15212",0115B00327,1532,1989-01-30,1989-01-30,2002-09-27,2002-09-27,40.49050546399764,-80.02812515897735,Brighton Heights,1,27,1-14,1,1,Northern,Riverview
281456,0115A00252000000," FLORA ST, PITTSBURGH, PA 15212",0115A00252,2068,1996-09-06,1996-09-06,2002-09-27,2002-09-27,40.490896033968895,-80.0292384816409,Brighton Heights,1,27,1-14,1,1,Northern,Riverview
281457,0075B00168000000," VERNER AVE, PITTSBURGH, PA 15212",0075B00168,1532,,,2002-09-27,2002-09-27,40.47988900336612,-80.04363439631693,Brighton Heights,1,27,1-14,1,1,Northern,Riverview
281458,0115A00135000000," HALLER ST, PITTSBURGH, PA 15212",0115A00135,1655,1996-09-06,1996-09-06,2002-09-27,2002-09-27,40.49012152401551,-80.03012475275997,Brighton Heights,1,27,1-14,1,1,Northern,Riverview
281459,0075L00116000000,"1601 ANTRIM ST, PITTSBURGH, PA 15212",0075L00116,1353,1989-04-12,1989-04-12,2002-09-27,2002-09-27,40.47514341741611,-80.0376143498983,Brighton Heights,1,27,1-14,1,1,Northern,Riverview
281460,0115B00332000000," TULIA ST, PITTSBURGH, PA 15212",0115B00332,1322,1989-01-30,1989-01-30,2002-09-27,2002-09-27,40.49071578186304,-80.02813551237678,Brighton Heights,1,27,1-14,1,1,Northern,Riverview
281461,0115B00323000000," TULIA ST, PITTSBURGH, PA 15212",0115B00323,1874,1996-09-06,1996-09-06,2002-09-27,2002-09-27,40.48989642874231,-80.02809263802662,Brighton Heights,1,27,1-14,1,1,Northern,Riverview
281462,0114F00093000000,"CAMBRONNE ST, PITTSBURGH, PA 15212",0114F00093,1260,1981-01-19,1981-01-19,2002-09-27,2002-09-27,40.48869427377521,-80.04319520818389,Brighton Heights,1,27,1-14,1,1,Northern,Riverview
281463,0076B00160000000," RODNEY ST, PITTSBURGH, PA 15212",0076B00160,1815,1981-02-03,1981-02-03,2002-09-27,2002-09-27,40.48027498653932,-80.02724209550611,Brighton Heights,1,27,1-14,1,1,Northern,Riverview
281464,0075M00053000000,"3245 MC CLURE AVE, PITTSBURGH, PA 15212",0075M00053,2015,1984-07-31,1984-07-31,2002-09-27,2002-09-27,40.47510683212391,-80.03559636193143,Brighton Heights,1,27,1-14,1,1,Northern,Riverview
281465,0115B00324000000,"88 TULIA ST, PITTSBURGH, PA 15212",0115B00324,924,1989-01-30,1989-01-30,2002-09-27,2002-09-27,40.49029927564359,-80.02811224509989,Brighton Heights,1,27,1-14,1,1,Northern,Riverview
281466,0075M00286000000,"3228 MC CLURE AVE, PITTSBURGH, PA 15212",0075M00286,2759,1998-01-28,1998-01-28,2002-09-27,2002-09-27,40.47489115946614,-80.03477979263452,Marshall-Shadeland,1,27,1-14,1,1,Northern,Riverview
281467,0174M00073000000,"925 BLACKADORE AVE, PITTSBURGH, PA 15221",0174M00073,722,1992-02-13,1992-02-13,2002-07-11,2002-07-11,40.45637255032816,-79.883552015508,Homewood North,9,13,3-17,5,2,Eastern,Highland
281468,0174F00284000000,"7319 IDLEWILD ST, PITTSBURGH, PA 15208",0174F00284,3917,1998-05-26,1998-05-26,2002-10-31,2002-10-31,40.45764701298702,-79.89278031080974,Homewood North,9,13,3-17,5,2,Eastern,Highland
281469,0174L00035000000,"7414 IDLEWILD ST, PITTSBURGH, PA 15208",0174L00035,1509,1998-10-09,1998-10-09,2002-10-31,2002-10-31,40.456792795207996,-79.8908816577698,Homewood North,9,13,3-17,5,2,Eastern,Highland
281470,0174L00050000000,"7435 FRANKSTOWN AVE, PITTSBURGH, PA 15221",0174L00050,3184,1992-07-13,1992-07-13,2002-10-31,2002-10-31,40.45633382550262,-79.8904772845173,Homewood North,9,13,3-17,5,2,Eastern,Highland
281471,0174K00051000000,"7404 IDLEWILD ST, PITTSBURGH, PA 15208",0174K00051,1034,1990-01-30,1990-01-30,2002-10-31,2002-10-31,40.456907768987655,-79.89137212183779,Homewood North,9,13,3-17,5,2,Eastern,Highland
281472,0126D00045000000,"MC PHERSON BLVD, PITTSBURGH, PA 15208",0126D00045,471,1996-01-26,1996-01-26,2002-07-11,2002-07-11,40.4525251850606,-79.90035227898301,Point Breeze North,9,14,3-14,4,2,Eastern,Frick
281473,0125S00167000000,"7112 JONATHAN PLACE, PITTSBURGH, PA 15208",0125S00167,2627,1997-02-14,1997-02-14,2002-07-11,2002-07-11,40.45295228593996,-79.90106046151416,Point Breeze North,9,14,3-14,4,2,Eastern,Frick
281474,0125K00060000000,"6824 5TH AVE, PITTSBURGH, PA 15208",0125K00060,32239,1998-10-07,1998-10-07,2002-07-11,2002-07-11,40.456002687740806,-79.90993974970691,Point Breeze North,9,14,3-14,4,2,Eastern,Frick
281475,0084J00148000001,"5838 PIERCE ST, PITTSBURGH, PA 15232",0084J00148,1309,1985-06-24,1985-06-24,2002-09-27,2002-09-27,40.456638630932936,-79.93214557368334,Shadyside,8,7,3-11,4,2,Eastern,Frick
281476,0026N00032000000,"3363 MILWAUKEE ST, PITTSBURGH, PA 15219",0026N00032,1053,1996-02-29,1996-02-29,2002-10-31,2002-10-31,40.453813817894336,-79.96250887149797,Upper Hill,6,5,2-22,2,3,Central,Schenley
281477,0026P00286000000,"3385 MILWAUKEE ST, PITTSBURGH, PA 15219",0026P00286,2139,1996-05-02,1996-05-02,2002-10-31,2002-10-31,40.45425484671718,-79.96186340423505,Upper Hill,6,5,2-22,2,3,Central,Schenley
281478,0026N00030000000,"3367 MILWAUKEE ST, PITTSBURGH, PA 15219",0026N00030,2115,1998-04-09,1998-04-09,2002-10-31,2002-10-31,40.453900231211016,-79.96237896094131,Upper Hill,6,5,2-22,2,3,Central,Schenley
281479,0026P00285000000,"3387 MILWAUKEE ST, PITTSBURGH, PA 15219",0026P00285,2268,1997-05-07,1997-05-07,2002-10-31,2002-10-31,40.4542990253432,-79.9618028283635,Upper Hill,6,5,2-22,2,3,Central,Schenley
281480,0026N00035000000,"3349 MILWAUKEE ST, PITTSBURGH, PA 15219",0026N00035,1053,1989-05-03,1989-05-03,2002-10-31,2002-10-31,40.45368067843049,-79.96270440965158,Upper Hill,6,5,2-22,2,3,Central,Schenley
281481,0009S00216000000,"1842 WEBSTER AVE, PITTSBURGH, PA 15219",0009S00216,19624,1988-02-01,1988-02-01,2002-04-05,2002-04-05,40.44481687360884,-79.98332130611426,Crawford-Roberts,6,3,2-1,2,3,Central,Schenley
281482,0009S00213000000,"1848 WEBSTER AVE, PITTSBURGH, PA 15219",0009S00213,12357,1992-01-14,1992-01-14,2002-04-05,2002-04-05,40.44488740190519,-79.98314983102814,Crawford-Roberts,6,3,2-1,2,3,Central,Schenley
281483,0010J00178000000,"1935 WEBSTER AVE, PITTSBURGH, PA 15219",0010J00178,3561,1997-03-18,1997-03-18,2002-04-05,2002-04-05,40.44577288027668,-79.982092956563,Crawford-Roberts,6,3,2-1,2,3,Central,Schenley
281484,0094N00174000000,"2525 EDGAR ST, PITTSBURGH, PA 15227",0094N00174,4399,1995-07-21,1995-07-21,2002-07-11,2002-07-11,40.38576660635192,-79.98058446834699,Carrick,4,29,4-23,3,4,Southern,Schenley
281485,0094A00234000000,"330 BECKS RUN RD, PITTSBURGH, PA 15210",0094A00234,2233,1996-09-30,1996-09-30,2002-07-11,2002-07-11,40.39385247504639,-79.9794661439079,Carrick,4,29,4-15,3,4,Southern,Schenley
281486,0014E00266000000,"401 BELTZHOOVER AVE, PITTSBURGH, PA 15210",0014E00266,2182,1988-04-12,1988-04-12,2002-10-31,2002-10-31,40.41903398792046,-79.99704494123608,Allentown,3,18,4-21,3,4,Southern,Emerald
281487,0014E00231000000,"616 CLIMAX ST, PITTSBURGH, PA 15210",0014E00231,1337,1981-03-10,1981-03-10,2002-10-31,2002-10-31,40.41973614116842,-79.99659573689684,Allentown,3,18,4-21,3,4,Southern,Emerald
281488,0014E00214000000,"623 CLIMAX ST, PITTSBURGH, PA 15210",0014E00214,3367,1996-05-24,1996-05-24,2002-12-13,2002-12-13,40.42016922896108,-79.9963904504418,Allentown,3,18,4-21,3,4,Southern,Emerald
281489,0014E00232000000,"614 CLIMAX ST, PITTSBURGH, PA 15210",0014E00232,1337,1979-02-14,1979-02-14,2002-10-31,2002-10-31,40.41973577612863,-79.9966849899491,Allentown,3,18,4-21,3,4,Southern,Emerald
281490,0095A00155000000,"26 ANSONIA PL, PITTSBURGH, PA 15210",0095A00155,1,1998-01-28,1998-01-28,,2002-05-31,40.394030452624186,-79.99803163007985,Brookline,4,32,4-25,6,4,Southern,Emerald
281491,0061G00275000000,"ZIMMERMAN ST, PITTSBURGH, PA 15210",0061G00275,3686,1992-08-24,1992-08-24,2002-07-11,2002-07-11,40.39946976540602,-80.00686736547085,Brookline,4,32,4-25,6,4,Southern,Emerald
281492,0032E00079000000,"WALDE ST, PITTSBURGH, PA 15210",0032E00079,712,1985-02-28,1985-02-28,2002-04-05,2002-04-05,40.41076065991606,-79.97930876451025,Mt. Oliver,3,16,4-8,3,4,Southern,Schenley
281493,0014J00136000000,"412 BELTZHOOVER AVE, PITTSBURGH, PA 15210",0014J00136,1176,1989-02-09,1989-02-09,2002-10-31,2002-10-31,40.41867007073414,-79.99758077190518,Beltzhoover,3,18,4-21,3,4,Southern,Emerald
281494,0014J00143000000,"500 BELTZHOOVER AVE, PITTSBURGH, PA 15210",0014J00143,743,1992-08-28,1992-08-28,2002-10-31,2002-10-31,40.41822022332224,-79.99755572268438,Beltzhoover,3,18,4-21,3,4,Southern,Emerald
281495,0029P00401000000,"MONONGAHELA RIVER, PITTSBURGH, PA 15207",0029P00401,1,2002-02-27,2002-02-27,,2002-05-07,40.424532232249994,-79.958961784231,South Side Flats,3,16,4-24,3,4,Southern,Schenley
281496,0059A00256000000," PARALLEL AVE, PITTSBURGH, PA 15210",0059A00256,1561,1986-01-27,1986-01-27,2002-09-27,2002-09-27,40.40246760659583,-79.98201673514131,Carrick,4,29,4-12,3,4,Southern,Schenley
281497,0095R00166000000," ANTENOR AVE, PITTSBURGH, PA 15210",0095R00166,1772,1987-01-29,1987-01-29,2002-09-27,2002-09-27,40.38533721288905,-79.98984803229345,Carrick,4,29,4-23,3,4,Southern,Schenley
281498,0032P00007000000," BRUNER ST, PITTSBURGH, PA 15210",0032P00007,1318,,,2002-09-27,2002-09-27,40.40411552523529,-79.97775993052355,Carrick,4,29,4-12,3,4,Southern,Schenley
281499,0059B00007000000," PARALLEL AVE, PITTSBURGH, PA 15210",0059B00007,1322,1987-07-02,1987-07-02,2002-09-27,2002-09-27,40.40395700877347,-79.97813636114277,Carrick,4,29,4-12,3,4,Southern,Schenley
281500,0059A00261000000,"PARALLEL AVE, PITTSBURGH, PA 15210",0059A00261,2007,1986-01-24,1986-01-24,2002-09-27,2002-09-27,40.40235820495687,-79.98238292106656,Carrick,4,29,4-12,3,4,Southern,Schenley
281501,0033S00173000000," THEONA ST, PITTSBURGH, PA 15210",0033S00173,1473,2000-02-08,2000-02-08,2002-09-27,2002-09-27,40.404554470961486,-79.9855133344671,Carrick,4,29,4-12,3,4,Southern,Schenley
281502,0060B00071000000," MINOOKA ST, PITTSBURGH, PA 15210",0060B00071,1235,1982-10-05,1982-10-05,2002-09-27,2002-09-27,40.40344146669958,-79.99423985879223,Carrick,4,29,4-7,3,4,Southern,Schenley
281503,0033P00295000000," BROOK ST, PITTSBURGH, PA 15210",0033P00295,1193,1998-02-27,1998-02-27,2002-09-27,2002-09-27,40.40411918834637,-79.99381030250969,Carrick,4,29,4-7,3,4,Southern,Schenley
281504,0060P00189000000," LYBRIG WAY, PITTSBURGH, PA 15210",0060P00189,1189,1982-01-29,1982-01-29,2002-09-27,2002-09-27,40.39437113076198,-79.99283278931654,Carrick,4,29,4-23,3,4,Southern,Schenley
281505,0060K00115000000," COLERAIN ST, PITTSBURGH, PA 15210",0060K00115,1228,1990-08-09,1990-08-09,2002-09-27,2002-09-27,40.3973147505915,-79.99490121962346,Carrick,4,29,4-23,3,4,Southern,Schenley
281506,0138C00010000000," RAVILLA AVE, PITTSBURGH, PA 15210",0138C00010,1244,1979-07-20,1979-07-20,2002-09-27,2002-09-27,40.38440961868418,-79.99097988179453,Carrick,4,32,4-23,3,4,Southern,Schenley
281507,0062P00276000000,"KENILWORTH ST, PITTSBURGH, PA 15226",0062P00276,1211,,,2002-09-27,2002-09-27,40.39466363245164,-80.02769118641245,Brookline,4,19,4-26,6,4,Southern,Emerald
281508,0061F00250000000,"ELMBANK ST, PITTSBURGH, PA 15226",0061F00250,1266,2000-08-14,2000-08-14,2002-09-27,2002-09-27,40.400063395446715,-80.01119986136054,Brookline,4,19,4-26,6,4,Southern,Emerald
281509,0139B00022000000,"MC NEILLY AVE, PITTSBURGH, PA 15216",0139B00022,1271,1984-10-01,1984-10-01,2002-09-27,2002-09-27,40.383471603660794,-80.01149838344396,Brookline,4,19,4-25,6,4,Southern,Emerald
281510,0060N00084000000,"12 ANSONIA PL, PITTSBURGH, PA 15210",0060N00084,1727,1991-09-04,1991-09-04,2002-09-27,2002-09-27,40.3951216529281,-79.9978145415318,Brookline,4,32,4-25,6,4,Southern,Emerald
281511,0061F00122000000,"FERNHILL AVE, PITTSBURGH, PA 15226",0061F00122,1203,,,2002-09-27,2002-09-27,40.40065753498535,-80.00937201394171,Brookline,4,19,4-26,6,4,Southern,Emerald
281512,0061M00234000000,"67 PETUNIA ST, PITTSBURGH, PA 15210",0061M00234,1536,1991-12-17,1991-12-17,2002-09-27,2002-09-27,40.397859742186334,-80.00189620710044,Brookline,4,32,4-25,6,4,Southern,Emerald
281513,0139A00050000000,"MC NEILLY AVE, PITTSBURGH, PA 15216",0139A00050,1550,1994-02-24,1994-02-24,2002-09-27,2002-09-27,40.38360845428329,-80.01306325501501,Brookline,4,19,4-25,6,4,Southern,Emerald
281514,0061N00210000000,"EDGEBROOK AVE, PITTSBURGH, PA 15226",0061N00210,1181,1983-10-03,1983-10-03,2002-09-27,2002-09-27,40.39594315385992,-80.01320833311283,Brookline,4,19,4-26,6,4,Southern,Emerald
281515,0020P00178000000,"1024 CRUCIBLE ST, PITTSBURGH, PA 15220",0020P00178,2039,1996-08-07,1996-08-07,2002-07-11,2002-07-11,40.44402370262816,-80.04243640774213,Elliott,2,20,1-17,6,5,Northern,Emerald
281516,0042G00037000000,"3043 GLEN MAWR AVE, PITTSBURGH, PA 15204",0042G00037,3759,1992-02-19,1992-02-19,2002-07-11,2002-07-11,40.45761321552137,-80.0538550791999,Sheraden,2,20,1-16,6,5,Northern,Emerald
281517,0021N00158000000,"2716 MERWYN AVE, PITTSBURGH, PA 15204",0021N00158,3765,1993-07-30,1993-07-30,2002-07-11,2002-07-11,40.45417087704012,-80.04890546608489,Sheraden,2,20,1-16,6,5,Northern,Emerald
281518,0021N00087000000,"2562 MERWYN AVE, PITTSBURGH, PA 15204",0021N00087,2590,1996-08-05,1996-08-05,2002-07-11,2002-07-11,40.45282379362622,-80.045769884652,Sheraden,2,20,1-16,6,5,Northern,Emerald
281519,0042S00309000000,"2762 GLEN MAWR AVE, PITTSBURGH, PA 15204",0042S00309,3389,1999-02-16,1999-02-16,2002-07-11,2002-07-11,40.454746446813004,-80.05056654542234,Sheraden,2,20,1-16,6,5,Northern,Emerald
281520,0041A00047000000,"1319 PRITCHARD ST, PITTSBURGH, PA 15204",0041A00047,3029,1996-06-11,1996-06-11,2002-07-11,2002-07-11,40.45257386652295,-80.06424348569118,Sheraden,2,20,1-16,6,5,Northern,Emerald
281521,0042G00233000000,"3234 MOTOR ST, PITTSBURGH, PA 15204",0042G00233,2603,1997-04-30,1997-04-30,2002-07-11,2002-07-11,40.45889317445906,-80.05615064090878,Sheraden,2,20,1-16,6,5,Northern,Emerald
281522,0042P00208000000,"1113 ADON ST, PITTSBURGH, PA 15204",0042P00208,2162,2000-03-20,2000-03-20,2002-07-11,2002-07-11,40.45339034398962,-80.06110185629854,Sheraden,2,20,1-16,6,5,Northern,Emerald
281523,0042H00028000000,"3047 MERWYN AVE, PITTSBURGH, PA 15204",0042H00028,3639,1994-01-28,1994-01-28,2002-07-11,2002-07-11,40.45812692890888,-80.05321103106401,Sheraden,2,20,1-16,6,5,Northern,Emerald
281524,0019M00115000000,"131 WABASH AVE, PITTSBURGH, PA 15220",0019M00115,15347,1984-01-31,1984-01-31,2002-07-11,2002-07-11,40.437066839683446,-80.03444212437745,West End,2,20,1-17,6,5,Northern,Emerald
281525,0020J00119000000,"1311 CRUCIBLE ST, PITTSBURGH, PA 15220",0020J00119,5652,1993-06-14,1993-06-14,2002-12-13,2002-12-13,40.4467917223142,-80.0469717246103,Crafton Heights,2,28,1-17,6,5,Northern,Emerald
281526,0006A00275000000," GREENLEAF ST, PITTSBURGH, PA 15211",0006A00275,6469,1988-01-26,1988-01-26,2004-09-24,2002-12-13,40.44223772188781,-80.02862668558441,Duquesne Heights,2,19,4-1,3,5,Southern,Emerald
281527,0006A00002000000,"106 STEUBEN ST, PITTSBURGH, PA 15220",0006A00002,1312,1987-01-06,1987-01-06,2002-09-27,2002-09-27,40.442921490051646,-80.03280472891716,Elliott,2,20,1-17,6,5,Northern,Emerald
281528,0007N00070000000,"98 STEUBEN ST, PITTSBURGH, PA 15220",0007N00070,739,2001-03-26,2001-03-26,2002-09-27,2002-09-27,40.44305383791528,-80.03243491183069,Elliott,2,20,1-17,6,5,Northern,Emerald
281529,0021P00121000000," CONESTOGA ST, PITTSBURGH, PA 15204",0021P00121,1240,,,2002-09-27,2002-09-27,40.45409206838311,-80.04347637635136,Sheraden,2,20,1-16,6,5,Northern,Emerald
281530,0041A00126000000,"FARONIA ST, PITTSBURGH, PA 15204",0041A00126,1245,1992-02-12,1992-02-12,2002-09-27,2002-09-27,40.45116234906818,-80.06604973659658,Sheraden,2,20,1-16,6,5,Northern,Emerald
281531,0042G00312000000,"3255 SLOPE ST, PITTSBURGH, PA 15204",0042G00312,1776,1998-02-27,1998-02-27,2002-09-27,2002-09-27,40.458734586318144,-80.05766405626508,Sheraden,2,20,1-16,6,5,Northern,Emerald
281532,0042S00332000000,"2737 MERWYN AVE, PITTSBURGH, PA 15204",0042S00332,1657,1998-01-28,1998-01-28,2002-09-27,2002-09-27,40.4543677403756,-80.0496988847252,Sheraden,2,20,1-16,6,5,Northern,Emerald
281533,0042G00106000000,"511 STADIUM ST, PITTSBURGH, PA 15204",0042G00106,1760,1999-11-12,1999-11-12,2002-09-27,2002-09-27,40.46003385279601,-80.05656570066621,Sheraden,2,20,1-16,6,5,Northern,Emerald
281534,0042G00075000000,"3239 STAFFORD ST, PITTSBURGH, PA 15204",0042G00075,1234,2000-08-30,2000-08-30,2002-09-27,2002-09-27,40.459610449302325,-80.05454987310932,Sheraden,2,20,1-16,6,5,Northern,Emerald
281535,0042H00082000000,"3037 STAFFORD ST, PITTSBURGH, PA 15204",0042H00082,1343,1985-10-29,1985-10-29,2002-09-27,2002-09-27,40.45833667345436,-80.05233399065169,Sheraden,2,20,1-16,6,5,Northern,Emerald
281536,0042H00101000000,"3206 STAFFORD ST, PITTSBURGH, PA 15204",0042H00101,2095,2000-03-22,2000-03-22,2002-09-27,2002-09-27,40.45925853864448,-80.05319611830417,Sheraden,2,20,1-16,6,5,Northern,Emerald
281537,0042G00154000000,"GLEN MAWR AVE, PITTSBURGH, PA 15204",0042G00154,1318,1994-06-02,1994-06-02,2002-09-27,2002-09-27,40.45968132702095,-80.05531717983747,Sheraden,2,20,1-16,6,5,Northern,Emerald
281538,0042S00200000000,"2719 ZEPHYR AVE, PITTSBURGH, PA 15204",0042S00200,2201,2000-11-13,2000-11-13,2002-09-27,2002-09-27,40.45307675795799,-80.05019950632445,Sheraden,2,20,1-16,6,5,Northern,Emerald
281539,0042P00210000000,"1110 EMPORIA ST, PITTSBURGH, PA 15204",0042P00210,1836,2000-03-20,2000-03-20,2002-09-27,2002-09-27,40.45328331285207,-80.06098456167734,Sheraden,2,20,1-16,6,5,Northern,Emerald
281540,0042N00143000000,"3200 UNIVERSAL ST, PITTSBURGH, PA 15204",0042N00143,1888,1988-07-11,1988-07-11,2002-09-27,2002-09-27,40.45510148203925,-80.0619898596199,Sheraden,2,20,1-16,6,5,Northern,Emerald
281541,0042G00151000000,"3301 CHRISTY ST, PITTSBURGH, PA 15204",0042G00151,1824,1993-03-25,1993-03-25,2002-09-27,2002-09-27,40.45976725753833,-80.05558410924047,Sheraden,2,20,1-16,6,5,Northern,Emerald
281542,0042G00150000000,"3302 GLEN MAWR AVE, PITTSBURGH, PA 15204",0042G00150,1692,1995-02-28,1995-02-28,2002-09-27,2002-09-27,40.459702019575694,-80.05571656601606,Sheraden,2,20,1-16,6,5,Northern,Emerald
281543,0070D00122000000,"FARONIA ST, PITTSBURGH, PA 15204",0070D00122,1529,1992-02-12,1992-02-12,2002-09-27,2002-09-27,40.451224338980175,-80.06623594474839,Sheraden,2,20,1-16,6,5,Northern,Emerald
281544,0042M00022000000,"2929 ZEPHYR AVE, PITTSBURGH, PA 15204",0042M00022,1585,1991-11-01,1991-11-01,2002-09-27,2002-09-27,40.455211198483454,-80.05273927509965,Sheraden,2,20,1-16,6,5,Northern,Emerald
281545,0006A00016000000,"105 STEUBEN ST, PITTSBURGH, PA 15220",0006A00016,485,,,2002-09-27,2002-09-27,40.44253430129057,-80.0325393543599,West End,2,20,1-17,6,5,Northern,Emerald
281546,0019D00200000000,"193 STEUBEN ST, PITTSBURGH, PA 15220",0019D00200,795,1990-10-25,1990-10-25,2002-09-27,2002-09-27,40.44140003291128,-80.0357567337023,West End,2,20,1-17,6,5,Northern,Emerald
281547,0006A00014000000,"107 STEUBEN ST, PITTSBURGH, PA 15220",0006A00014,901,1987-02-04,1987-02-04,2002-09-27,2002-09-27,40.44251041012331,-80.03260302800547,West End,2,20,1-17,6,5,Northern,Emerald
281548,0007N00063000000,"61 STEUBEN ST, PITTSBURGH, PA 15220",0007N00063,1246,2001-03-26,2001-03-26,2002-09-27,2002-09-27,40.44313574603588,-80.0310979602055,West End,2,20,1-17,6,5,Northern,Emerald
281549,0006A00020000000,"97 STEUBEN ST, PITTSBURGH, PA 15220",0006A00020,571,,,2002-09-27,2002-09-27,40.4426176108834,-80.03231016622006,West End,2,20,1-17,6,5,Northern,Emerald
281550,0022E00269000000,"1820 CHATEAU ST, PITTSBURGH, PA 15233",0022E00269,4616,1984-02-10,1984-02-10,1993-10-25,1993-10-25,40.45803281832083,-80.0294523455664,Manchester,6,21,1-8,1,1,Northern,Riverview
281551,0022E00253000000,"1431 WARNER ST, PITTSBURGH, PA 15233",0022E00253,1669,1986-02-25,1986-02-25,1993-10-25,1993-10-25,40.45784658194084,-80.02864614774313,Manchester,6,21,1-8,1,1,Northern,Riverview
281552,0022B00293000000,"1210 CALIFORNIA AVE, PITTSBURGH, PA 15212",0022B00293,6264,,,1993-09-20,1993-03-22,40.460337505578565,-80.02463457800707,California-Kirkbride,6,21,1-9,1,1,Northern,Riverview
281553,0022G00053000000," LAMONT ST, PITTSBURGH, PA 15212",0022G00053,2692,1977-02-02,1977-02-02,1993-06-21,1993-06-21,40.46000165441082,-80.02218482616729,California-Kirkbride,6,21,1-9,1,1,Northern,Riverview
281554,0022C00169000000," MORRISON AVE, PITTSBURGH, PA 15212",0022C00169,3614,1979-04-30,1979-04-30,1993-06-21,1993-06-21,40.4601906381856,-80.0219103561835,California-Kirkbride,6,21,1-9,1,1,Northern,Riverview
281555,0022G00097000000," LAMONT ST, PITTSBURGH, PA 15212",0022G00097,2649,1980-11-10,1980-11-10,1993-06-21,1993-06-21,40.45987248988399,-80.02182783087795,California-Kirkbride,6,21,1-9,1,1,Northern,Riverview
281556,0022G00037000000," ST IVES ST, PITTSBURGH, PA 15212",0022G00037,3612,1979-02-07,1979-02-07,1993-06-21,1993-06-21,40.459908591458685,-80.0231694147177,California-Kirkbride,6,21,1-9,1,1,Northern,Riverview
281557,0022C00115000000," MORRISON AVE, PITTSBURGH, PA 15212",0022C00115,2599,1981-01-27,1981-01-27,1993-06-21,1993-06-21,40.46049274112138,-80.02208071601477,California-Kirkbride,6,21,1-9,1,1,Northern,Riverview
281558,0022G00052000000," LAMONT ST, PITTSBURGH, PA 15212",0022G00052,2841,1977-02-02,1977-02-02,1993-06-21,1993-06-21,40.45999126598973,-80.02224175731745,California-Kirkbride,6,21,1-9,1,1,Northern,Riverview
281559,0022C00177000000," MORRISON AVE, PITTSBURGH, PA 15212",0022C00177,655,,,1993-06-21,1993-06-21,40.46010637619476,-80.02237747054073,California-Kirkbride,6,21,1-9,1,1,Northern,Riverview
281560,0022C00178000000," MORRISON AVE, PITTSBURGH, PA 15212",0022C00178,4607,1979-04-30,1979-04-30,1993-06-21,1993-06-21,40.46009489990762,-80.02243525161002,California-Kirkbride,6,21,1-9,1,1,Northern,Riverview
281561,0022C00114000000," MORRISON AVE, PITTSBURGH, PA 15212",0022C00114,2752,1981-01-27,1981-01-27,1993-06-21,1993-06-21,40.46048139104139,-80.02214047800382,California-Kirkbride,6,21,1-9,1,1,Northern,Riverview
281562,0022C00094000000," MORRISON AVE, PITTSBURGH, PA 15212",0022C00094,2636,1981-11-23,1981-11-23,1993-06-21,1993-06-21,40.46024524098021,-80.02338213204598,California-Kirkbride,6,21,1-9,1,1,Northern,Riverview
281563,0022G00102000000,"1013 LAMONT ST, PITTSBURGH, PA 15212",0022G00102,3698,1977-02-02,1977-02-02,1993-06-21,1993-06-21,40.45982133348125,-80.02212362690494,California-Kirkbride,6,21,1-9,1,1,Northern,Riverview
281564,0047N00305000000,"SOLAR ST, PITTSBURGH, PA 15212",0047N00305,1782,1978-01-12,1978-01-12,1993-03-22,1993-03-22,40.46287855709969,-79.99587988359742,Spring Hill-City View,1,24,1-24,1,1,Northern,Riverview
281565,0024A00201000000,"6 QUEEN ST, PITTSBURGH, PA 15212",0024A00201,15000,1989-02-21,1989-02-21,,1993-12-06,40.4612447493521,-79.99767562733913,Spring Hill-City View,1,24,1-24,1,1,Northern,Riverview
281566,0045S00121000000,"540 CHAUTAUQUA ST, PITTSBURGH, PA 15214",0045S00121,5565,,,1993-09-20,1993-09-20,40.464709204172216,-80.01648821396944,Perry South,6,25,1-12,1,1,Northern,Riverview
281567,0022D00394000000,"25 OVERLOOK ST, PITTSBURGH, PA 15214",0022D00394,1974,1986-01-13,1986-01-13,1993-09-20,1993-09-20,40.46166067597542,-80.01623931213595,Perry South,6,25,1-10,1,1,Northern,Riverview
281568,0022H00056000000,"858 CALIFORNIA AVE, PITTSBURGH, PA 15212",0022H00056,4891,1992-05-22,1992-05-22,1993-09-20,1993-09-20,40.45951016136617,-80.01895689259895,California-Kirkbride,6,25,1-9,1,1,Northern,Riverview
281569,0045S00162000000,"59 MELROSE AVE, PITTSBURGH, PA 15214",0045S00162,1644,1989-04-11,1989-04-11,1993-06-21,1993-06-21,40.4638092828664,-80.01681373585761,Perry South,6,25,1-12,1,1,Northern,Riverview
281570,0022D00383000000," OVERLOOK ST, PITTSBURGH, PA 15214",0022D00383,2510,1983-09-12,1983-09-12,1993-06-21,1993-06-21,40.4621020264488,-80.01658051536828,Perry South,6,25,1-10,1,1,Northern,Riverview
281571,0022D00092000000,"908 KIRKBRIDE ST, PITTSBURGH, PA 15212",0022D00092,6147,1982-02-05,1982-02-05,1993-06-21,1993-06-21,40.46017399363927,-80.01966951240689,California-Kirkbride,6,25,1-9,1,1,Northern,Riverview
281572,0022D00104000000,"848 KIRKBRIDE ST, PITTSBURGH, PA 15212",0022D00104,4839,1981-12-28,1981-12-28,1993-06-21,1993-06-21,40.46027080386951,-80.01881133322678,California-Kirkbride,6,25,1-9,1,1,Northern,Riverview
281573,0022G00177000000,"946 LYSLE ST, PITTSBURGH, PA 15212",0022G00177,3867,1986-09-24,1986-09-24,1993-06-21,1993-06-21,40.4594446717437,-80.02085223965041,California-Kirkbride,6,25,1-9,1,1,Northern,Riverview
281574,0022G00060000000,"932 KIRKBRIDE ST, PITTSBURGH, PA 15212",0022G00060,858,1990-03-14,1990-03-14,1993-06-21,1993-06-21,40.45995865126211,-80.02053938779619,California-Kirkbride,6,25,1-9,1,1,Northern,Riverview
281575,0022G00157000000,"963 KIRKBRIDE ST, PITTSBURGH, PA 15212",0022G00157,2020,1991-07-10,1991-07-10,1993-06-21,1993-06-21,40.45949618173138,-80.02133332249461,California-Kirkbride,6,25,1-9,1,1,Northern,Riverview
281576,0022H00028000000,"859 KIRKBRIDE ST, PITTSBURGH, PA 15212",0022H00028,1533,1989-01-30,1989-01-30,1993-06-21,1993-06-21,40.45991284098523,-80.0190003158835,California-Kirkbride,6,25,1-9,1,1,Northern,Riverview
281577,0022C00132000001," MORRISON AVE, PITTSBURGH, PA 15212",0022C00132,2356,,,1993-09-20,1993-06-21,40.46069178013368,-80.02103746011609,California-Kirkbride,6,25,1-9,1,1,Northern,Riverview
281578,0022G00181000000," LYSLE ST, PITTSBURGH, PA 15212",0022G00181,2392,1976-07-07,1976-07-07,1993-06-21,1993-06-21,40.45947342362279,-80.02056889389492,California-Kirkbride,6,25,1-9,1,1,Northern,Riverview
281579,0022C00121000000," MORRISON AVE, PITTSBURGH, PA 15212",0022C00121,4683,1981-12-28,1981-12-28,1993-06-21,1993-06-21,40.46057484138253,-80.02168404030185,California-Kirkbride,6,25,1-9,1,1,Northern,Riverview
281580,0022G00079000000,"960 KIRKBRIDE ST, PITTSBURGH, PA 15212",0022G00079,3341,1985-01-28,1985-01-28,1993-06-21,1993-06-21,40.4598303943792,-80.02153761849581,California-Kirkbride,6,25,1-9,1,1,Northern,Riverview
281581,0022C00126000000,"954 MORRISON AVE, PITTSBURGH, PA 15212",0022C00126,2150,,,1993-09-20,1993-06-21,40.460627890128485,-80.02139817549777,California-Kirkbride,6,25,1-9,1,1,Northern,Riverview
281582,0022D00071000000,"921 MORRISON AVE, PITTSBURGH, PA 15212",0022D00071,5654,1980-02-11,1980-02-11,1993-06-21,1993-06-21,40.46043007561519,-80.02020187660563,California-Kirkbride,6,25,1-9,1,1,Northern,Riverview
281583,0022H00027000000,"861 KIRKBRIDE ST, PITTSBURGH, PA 15212",0022H00027,966,1991-09-04,1991-09-04,1993-06-21,1993-06-21,40.459899414011325,-80.0190753834373,California-Kirkbride,6,25,1-9,1,1,Northern,Riverview
281584,0022G00072000000,"950 KIRKBRIDE ST, PITTSBURGH, PA 15212",0022G00072,3999,1986-01-23,1986-01-23,1993-06-21,1993-06-21,40.45989563515881,-80.02119679828897,California-Kirkbride,6,25,1-9,1,1,Northern,Riverview
281585,0022C00134000000,"938 MORRISON AVE, PITTSBURGH, PA 15212",0022C00134,2701,1982-02-22,1982-02-22,1993-06-21,1993-06-21,40.46071446690534,-80.02090486994595,California-Kirkbride,6,25,1-9,1,1,Northern,Riverview
281586,0022H00109000000,"1727 BRIGHTON RD, PITTSBURGH, PA 15212",0022H00109,4498,1987-12-10,1987-12-10,1993-06-21,1993-06-21,40.4590463591965,-80.0166538970929,California-Kirkbride,6,25,1-21,1,1,Northern,Riverview
281587,0022C00160000000," LAMONT ST, PITTSBURGH, PA 15212",0022C00160,4090,,,1993-09-20,1993-06-21,40.46023820903141,-80.02130687544253,California-Kirkbride,6,25,1-9,1,1,Northern,Riverview
281588,0022H00034000100,"844 LYSLE ST, PITTSBURGH, PA 15212",0022H000340001,2342,,,1993-09-20,1993-06-21,40.459823254247006,-80.01858208806237,California-Kirkbride,6,25,1-9,1,1,Northern,Riverview
281589,0022D00061000000,"906 MORRISON AVE, PITTSBURGH, PA 15212",0022D00061,5096,1982-03-29,1982-03-29,1993-06-21,1993-06-21,40.46091589204302,-80.01980725046536,California-Kirkbride,6,25,1-9,1,1,Northern,Riverview
281590,0022G00179000000,"942 LYSLE ST, PITTSBURGH, PA 15212",0022G00179,3319,1987-08-05,1987-08-05,1993-06-21,1993-06-21,40.459472781323775,-80.02071982426665,California-Kirkbride,6,25,1-9,1,1,Northern,Riverview
281591,0022D00084000000,"928 KIRKBRIDE ST, PITTSBURGH, PA 15212",0022D00084,3898,1987-02-03,1987-02-03,1993-06-21,1993-06-21,40.46006483270367,-80.02024786836158,California-Kirkbride,6,25,1-9,1,1,Northern,Riverview
281592,0046J00091000000,"2313 HOLYOKE ST, PITTSBURGH, PA 15214",0046J00091,5599,,,1993-09-20,1993-09-20,40.466407282234414,-80.01472015296302,Perry South,6,26,1-12,1,1,Northern,Riverview
281593,0045M00313000000,"626 CHESTER AVE, PITTSBURGH, PA 15214",0045M00313,3034,1985-01-25,1985-01-25,1993-09-20,1993-09-20,40.46589924574905,-80.0178304888162,Perry South,6,26,1-12,1,1,Northern,Riverview
281594,0044D00070000000,"1616 ECKERT ST, PITTSBURGH, PA 15212",0044D00070,3804,1981-02-05,1981-02-05,1993-09-20,1993-09-20,40.47193984555757,-80.03622472662475,Marshall-Shadeland,1,27,1-14,1,1,Northern,Riverview
281595,0081R00001000000,"5201 SCHENLEY AVE, PITTSBURGH, PA 15224",0081R00001,2390,1979-11-15,1979-11-15,1993-03-22,1993-03-22,40.472272947535856,-79.93889407886914,Garfield,9,10,3-4,5,2,Central,Highland
281596,0081R00002000000,"5203 SCHENLEY AVE, PITTSBURGH, PA 15224",0081R00002,5031,1985-02-14,1985-02-14,1993-03-22,1993-03-22,40.47230085292901,-79.93877492873759,Garfield,9,10,3-4,5,2,Central,Highland
281597,0124P00186000000,"516 WINFIELD ST, PITTSBURGH, PA 15206",0124P00186,7865,1984-10-10,1984-10-10,1993-03-22,1993-03-22,40.46299985449157,-79.91093438968873,Larimer,9,12,3-12,5,2,Eastern,Highland
281598,0124P00300000000,"545 TURRETT ST, PITTSBURGH, PA 15206",0124P00300,2639,1990-05-11,1990-05-11,1993-02-22,1993-02-22,40.46280707522976,-79.90907746171459,Larimer,9,12,3-12,5,2,Eastern,Highland
281599,0125B00368000000," CONTINENTAL ST, PITTSBURGH, PA 15206",0125B00368,4508,,,1993-09-20,1993-09-20,40.46014192178146,-79.91060874887758,Larimer,9,12,3-10,5,2,Eastern,Highland
281600,0125A00118000000," LINCOLN AVE, PITTSBURGH, PA 15206",0125A00118,8127,,,1993-09-20,1993-09-20,40.46067348040488,-79.91263868288041,Larimer,9,12,3-12,5,2,Eastern,Highland
281601,0125H00061000000,"1003 GERRITT ST, PITTSBURGH, PA 15208",0125H00061,6150,,,1993-09-20,1993-09-20,40.45987432779323,-79.90198923018536,Homewood West,9,12,3-17,5,2,Eastern,Highland
281602,0125H00062000000,"1001 GERRITT ST, PITTSBURGH, PA 15208",0125H00062,6724,,,1993-09-20,1993-09-20,40.459830777919535,-79.90201147064302,Homewood West,9,12,3-17,5,2,Eastern,Highland
281603,0125G00108000000,"6841 FRANKSTOWN AVE, PITTSBURGH, PA 15208",0125G00108,8530,1979-03-30,1979-03-30,1993-06-21,1993-06-21,40.458335535866325,-79.90385623121306,Homewood West,9,12,3-17,5,2,Eastern,Highland
281604,0125G00100000000," BENNETT ST, PITTSBURGH, PA 15208",0125G00100,6792,1984-05-31,1984-05-31,1993-06-21,1993-06-21,40.45779638446668,-79.90397243651245,Homewood West,9,12,3-17,5,2,Eastern,Highland
281605,0124S00363000000,"1108 LINCOLN AVE, PITTSBURGH, PA 15206",0124S00363,8326,1988-03-11,1988-03-11,1993-06-21,1993-06-21,40.46427193195986,-79.8997051957444,Homewood North,9,12,3-15,5,2,Eastern,Highland
281606,0232A00203000000,"622 HAVERHILL ST, PITTSBURGH, PA 15221",0232A00203,1,1993-02-08,1993-02-08,,1993-10-05,40.45231457203118,-79.88097515190461,East Hills,9,13,3-17,5,2,Eastern,Frick
281607,0231F00284000000,"8451 FRANKSTOWN AVE, PITTSBURGH, PA 15235",0231F00284,5918,1984-06-29,1984-06-29,1993-03-22,1993-03-22,40.457949329848034,-79.8767296126795,East Hills,9,13,3-17,5,2,Eastern,Frick
281608,0232A00205000000,"622 HAVERHILL ST, PITTSBURGH, PA 15221",0232A00205,1,1993-09-24,1993-09-24,,1993-10-05,40.45244569768196,-79.8810226423189,East Hills,9,13,3-17,5,2,Eastern,Frick
281609,0232B00032000000,"NIMICK PL, PITTSBURGH, PA 15221",0232B00032,1317,1979-05-16,1979-05-16,1993-03-22,1993-03-22,40.45110017193816,-79.87825312158907,East Hills,9,13,3-17,5,2,Eastern,Frick
281610,0231N00258000000,"638 HAVERHILL ST, PITTSBURGH, PA 15221",0231N00258,1,1993-01-27,1993-01-27,,1993-10-27,40.45284276578272,-79.88117147513226,East Hills,9,13,3-17,5,2,Eastern,Frick
281611,0174E00037000000,"7124 MONTICELLO ST, PITTSBURGH, PA 15208",0174E00037,8691,1984-04-17,1984-04-17,1993-03-22,1993-03-22,40.45967334168295,-79.8970531163519,Homewood North,9,13,3-17,5,2,Eastern,Highland
281612,0174G00182000000,"HERMITAGE ST, PITTSBURGH, PA 15208",0174G00182,9340,,,1993-09-20,1993-03-22,40.45872793529577,-79.88964284331772,Homewood North,9,13,3-17,5,2,Eastern,Highland
281613,0174F00122000000,"7301 MONTICELLO ST, PITTSBURGH, PA 15208",0174F00122,4895,1984-01-25,1984-01-25,1993-03-22,1993-03-22,40.459189397256175,-79.8931131632319,Homewood North,9,13,3-17,5,2,Eastern,Highland
281614,0174D00095000000,"1125 WHEELER ST, PITTSBURGH, PA 15208",0174D00095,4717,,,1993-09-20,1993-09-20,40.46007457657468,-79.88505664649763,Homewood North,9,13,3-17,5,2,Eastern,Highland
281615,0174F00088000000," HERMITAGE ST, PITTSBURGH, PA 15208",0174F00088,9884,1976-02-27,1976-02-27,1993-09-20,1993-09-20,40.45924860570063,-79.89196481666905,Homewood North,9,13,3-17,5,2,Eastern,Highland
281616,0174M00395000000,"7725 FRANKSTOWN AVE, PITTSBURGH, PA 15208",0174M00395,4650,1983-10-25,1983-10-25,1993-03-22,1993-03-22,40.45552044001714,-79.8868083258439,Homewood North,9,13,3-17,5,2,Eastern,Highland
281617,0174E00001000000," MONTICELLO ST, PITTSBURGH, PA 15208",0174E00001,4784,1985-01-25,1985-01-25,1993-09-20,1993-09-20,40.46001687080755,-79.89676871685448,Homewood North,9,13,3-17,5,2,Eastern,Highland
281618,0174K00049000000,"7400 IDLEWILD ST, PITTSBURGH, PA 15208",0174K00049,9000,1981-11-04,1981-11-04,1993-12-08,1993-12-08,40.456942266950165,-79.89154272857222,Homewood North,9,13,3-17,5,2,Eastern,Highland
281619,0175H00130000000,"7939 TIOGA ST, PITTSBURGH, PA 15208",0175H00130,5301,1991-11-06,1991-11-06,1993-09-20,1993-09-20,40.449787944534776,-79.8853200834031,Homewood South,9,13,3-17,5,2,Eastern,Frick
281620,0174R00318000000,"7729 KELLY ST, PITTSBURGH, PA 15208",0174R00318,5549,1988-09-26,1988-09-26,1993-03-22,1993-03-22,40.45356109237253,-79.88751037992158,Homewood South,9,13,3-17,5,2,Eastern,Frick
281621,0174F00307000000,"7219 IDLEWILD ST, PITTSBURGH, PA 15208",0174F00307,7565,1986-04-17,1986-04-17,1993-06-21,1993-06-21,40.45815718218627,-79.89502492990637,Homewood North,9,13,3-17,5,2,Eastern,Highland
281622,0174A00346000000," FLETCHER WAY, PITTSBURGH, PA 15208",0174A00346,4094,,,1993-09-20,1993-06-21,40.460418911798,-79.89901772581585,Homewood North,9,13,3-18,5,2,Eastern,Highland
281623,0174F00308000000,"7217 IDLEWILD ST, PITTSBURGH, PA 15208",0174F00308,14071,1992-03-23,1992-03-23,1993-09-20,1993-06-21,40.45817677935126,-79.89512059670012,Homewood North,9,13,3-17,5,2,Eastern,Highland
281624,0174A00339000000,"7046 FLETCHER WAY, PITTSBURGH, PA 15208",0174A00339,1795,1987-12-23,1987-12-23,1993-06-21,1993-06-21,40.460295750793854,-79.89848291019136,Homewood North,9,13,3-18,5,2,Eastern,Highland
281625,0011L00031000000,"2614 5TH AVE, PITTSBURGH, PA 15213",0011L00031,2201,1988-11-04,1988-11-04,1993-06-21,1993-06-21,40.437393848490494,-79.97088931296528,West Oakland,6,4,2-1,4,3,Central,Schenley
281626,0011L00026000000," BEELEN ST, PITTSBURGH, PA 15213",0011L00026,659,1988-11-04,1988-11-04,1993-06-21,1993-06-21,40.43747567908412,-79.97074966845516,West Oakland,6,4,2-1,4,3,Central,Schenley
281627,0026P00083000000,"800 CLARISSA ST, PITTSBURGH, PA 15219",0026P00083,3309,,,1993-09-20,1993-09-20,40.4529252561634,-79.95986755913002,Upper Hill,6,5,2-22,2,3,Central,Schenley
281628,0010K00308000A00,"2225 LAWSON ST, PITTSBURGH, PA 15219",0010K00308A,2158,1979-02-08,1979-02-08,1993-09-20,1993-09-20,40.446741951323546,-79.97610838370069,Middle Hill,6,5,2-5,2,3,Central,Schenley
281629,0010K00378000000,"22 SOMERS ST, PITTSBURGH, PA 15219",0010K00378,3722,,,1993-09-20,1993-09-20,40.44790115937068,-79.97449276263913,Middle Hill,6,5,2-5,2,3,Central,Schenley
281630,0010M00128000000,"2538 ELBA ST, PITTSBURGH, PA 15219",0010M00128,4188,1984-10-16,1984-10-16,1993-12-08,1993-12-08,40.44659214105475,-79.96930524662777,Middle Hill,6,5,2-5,2,3,Central,Schenley
281631,0010G00177000000,"2432 WEBSTER AVE, PITTSBURGH, PA 15219",0010G00177,3093,1991-03-15,1991-03-15,1993-09-20,1993-09-20,40.44923320457107,-79.97289424249338,Middle Hill,6,5,2-5,2,3,Central,Schenley
281632,0010G00154000000,"618 UPTON ST, PITTSBURGH, PA 15219",0010G00154,3958,1982-05-11,1982-05-11,1993-12-08,1993-06-21,40.4487251232402,-79.97185891376812,Middle Hill,6,5,2-5,2,3,Central,Schenley
281633,0010R00147000000,"2300 CENTRE AVE, PITTSBURGH, PA 15219",0010R00147,8159,1983-10-31,1983-10-31,1993-06-21,1993-06-21,40.44508559785554,-79.97371638157851,Middle Hill,6,5,2-5,2,3,Central,Schenley
281634,0010G00152000000,"619 UPTON ST, PITTSBURGH, PA 15219",0010G00152,1557,1989-01-27,1989-01-27,1993-12-08,1993-06-21,40.44879035560925,-79.97172746905734,Middle Hill,6,5,2-5,2,3,Central,Schenley
281635,0026J00194000000,"3388 BIGELOW BLVD, PITTSBURGH, PA 15219",0026J00194,7466,1989-09-27,1989-09-27,1993-09-20,1993-09-20,40.4567283121408,-79.96303834994758,Polish Hill,7,6,2-24,2,3,Central,Highland
281636,0054F00098000000,"531 NAYLOR ST, PITTSBURGH, PA 15207",0054F00098,2778,1988-01-29,1988-01-29,1993-12-08,1993-12-08,40.42869558449004,-79.94439027884435,Greenfield,5,14,2-12,4,3,Eastern,Frick
281637,0032B00203000000," ORMSBY AVE, PITTSBURGH, PA 15210",0032B00203,1389,1983-05-03,1983-05-03,1993-09-20,1993-09-01,40.41163489032117,-79.97463194661903,St. Clair,3,16,4-8,3,4,Southern,Schenley
281638,0032B00084000000,"528 ORMSBY AVE, PITTSBURGH, PA 15210",0032B00084,5804,1991-04-22,1991-04-22,1993-06-21,1993-06-21,40.4126597901028,-79.97804889727318,Mt. Oliver,3,16,4-8,3,4,Southern,Schenley
281639,0003K00120000000,"619 ARLINGTON AVE, PITTSBURGH, PA 15203",0003K00120,2946,,,1993-09-20,1993-09-20,40.42689949532168,-79.99362119536819,South Side Slopes,3,17,4-5,3,4,Southern,Schenley
281640,0014M00014000000," MT OLIVER ST, PITTSBURGH, PA 15210",0014M00014,1,1992-02-05,1992-02-05,,1993-10-21,40.41823655108429,-79.98687625298335,South Side Slopes,3,17,4-6,3,4,Southern,Schenley
281641,0014L00283000000,"1633 ARLINGTON AVE, PITTSBURGH, PA 15210",0014L00283,1,1992-02-05,1992-02-05,,1993-10-21,40.41812669539172,-79.98697383645512,South Side Slopes,3,17,4-6,3,4,Southern,Schenley
281642,0014H00199000000,"2427 GABLE ST, PITTSBURGH, PA 15210",0014H00199,3448,1983-12-07,1983-12-07,1993-09-20,1993-09-20,40.42071439581502,-79.98377437298461,South Side Slopes,3,17,4-22,3,4,Southern,Schenley
281643,0014G00315000000,"33 MT OLIVER ST, PITTSBURGH, PA 15210",0014G00315,3752,1982-02-11,1982-02-11,1993-03-22,1993-03-22,40.42085008628503,-79.98774231399827,South Side Slopes,3,17,4-6,3,4,Southern,Schenley
281644,0015H00108000000,"220 LOYAL WAY, PITTSBURGH, PA 15210",0015H00108,1844,1985-01-30,1985-01-30,1993-09-20,1993-09-20,40.41915045744528,-80.00332019384771,Beltzhoover,3,18,4-16,3,4,Southern,Emerald
281645,0015L00253000000,"502 DELMONT AVE, PITTSBURGH, PA 15210",0015L00253,5935,1980-03-24,1980-03-24,1993-02-22,1993-02-22,40.418155021694815,-80.00427205201683,Beltzhoover,3,18,4-16,3,4,Southern,Emerald
281646,0015H00303000000,"302 WARRINGTON AVE, PITTSBURGH, PA 15210",0015H00303,5272,1980-07-11,1980-07-11,1993-03-22,1993-03-22,40.420893284100416,-80.0022263499855,Beltzhoover,3,18,4-16,3,4,Southern,Emerald
281647,0015M00237000000,"307 CHALFONT ST, PITTSBURGH, PA 15210",0015M00237,3189,1989-08-28,1989-08-28,1993-09-20,1993-09-20,40.41684184803016,-80.00190847249797,Beltzhoover,3,18,4-16,3,4,Southern,Emerald
281648,0015H00083000000,"315 FREELAND ST, PITTSBURGH, PA 15210",0015H00083,2376,1987-06-05,1987-06-05,1993-03-22,1993-03-22,40.41929954218792,-80.00171945366259,Beltzhoover,3,18,4-16,3,4,Southern,Emerald
281649,0014E00113000000,"521 CLIMAX ST, PITTSBURGH, PA 15210",0014E00113,3489,1985-08-05,1985-08-05,1993-06-21,1993-06-21,40.42021258099695,-79.99804670618487,Beltzhoover,3,18,4-21,3,4,Southern,Emerald
281650,0060K00246000000,"THIELMAN ST, PITTSBURGH, PA 15210",0060K00246,1351,1983-05-31,1983-05-31,1993-10-25,1993-10-25,40.39811319273428,-79.99262824431354,Carrick,4,29,4-23,3,4,Southern,Schenley
281651,0035E00033000000," NAPOLEON ST, PITTSBURGH, PA 15216",0035E00033,3009,,,1993-09-20,1993-09-20,40.40954832400722,-80.02892840341721,Beechview,4,19,4-28,6,5,Southern,Emerald
281652,0020P00068000000,"1012 STEUBEN ST, PITTSBURGH, PA 15205",0020P00068,5680,1984-04-25,1984-04-25,1993-03-22,1993-03-22,40.4432899689777,-80.04276650158094,Elliott,2,20,1-17,6,5,Northern,Emerald
281653,0019H00151000000,"615 WALBRIDGE ST, PITTSBURGH, PA 15220",0019H00151,997,1991-02-06,1991-02-06,1993-06-21,1993-06-21,40.440183042015775,-80.03624919475662,Elliott,2,20,1-17,6,5,Northern,Emerald
281654,0023K00389000000,"1234 BUTTERFIELD WAY, PITTSBURGH, PA 15212",0023K00389,7000,2002-06-26,2005-03-29,2016-10-28,2016-10-28,40.45676993140683,-80.00847910596563,Central Northside,1,22,1-21,1,1,Northern,Riverview
281655,0024J00302000C00,"827 BLOSSOM WAY, PITTSBURGH, PA 15212",0024J00302C,3500,2002-07-29,2007-03-01,2016-08-19,2016-08-19,40.45704492837647,-79.99672685501635,East Allegheny,1,23,1-5,1,1,Northern,Riverview
281656,0024J00302000A00,"825 BLOSSOM WAY, PITTSBURGH, PA 15212",0024J00302A,1000,1997-06-17,1997-06-17,2016-08-19,2016-08-19,40.45703319993336,-79.99677886045758,East Allegheny,1,23,1-5,1,1,Northern,Riverview
281657,0024K00290000000,"1010 CONSTANCE ST, PITTSBURGH, PA 15212",0024K00290,500,1989-07-26,2007-03-15,2016-10-28,2016-10-28,40.45754312129705,-79.99428566969624,East Allegheny,1,23,1-5,1,1,Northern,Riverview
281658,0024K00302000000,"910 CONSTANCE ST, PITTSBURGH, PA 15212",0024K00302,1,1995-02-10,1995-02-10,2016-10-28,2016-10-28,40.456825315361776,-79.99405309873545,East Allegheny,1,23,1-5,1,1,Northern,Riverview
281659,0024K00299000000,"916 CONSTANCE ST, PITTSBURGH, PA 15212",0024K00299,16000,2000-10-31,2003-03-27,2016-10-28,2016-10-28,40.4570006862853,-79.99411189699265,East Allegheny,1,23,1-5,1,1,Northern,Riverview
281660,0047M00214000000,"1815 RIALTO ST, PITTSBURGH, PA 15212",0047M00214,10314,2019-01-03,2005-03-23,2016-04-29,2016-04-29,40.46683294063303,-79.98286345423644,Troy Hill,1,24,1-2,1,1,Northern,Riverview
281661,0024F00211000000,"1037 SPRING GARDEN AVE, PITTSBURGH, PA 15212",0024F00211,15816,2002-03-12,2002-03-12,2016-04-29,2016-04-29,40.45895332972981,-79.99365345287923,Spring Garden,1,24,1-5,1,1,Northern,Riverview
281662,0047P00361000000,"LEISTER ST, PITTSBURGH, PA 15212",0047P00361,18572,1995-02-10,2005-09-06,2016-04-29,2016-04-29,40.462813879968905,-79.9948974927148,Spring Hill-City View,1,24,1-24,1,1,Northern,Riverview
281663,0024C00147000000,"1244 HIGH ST, PITTSBURGH, PA 15212",0024C00147,1,2001-06-19,2011-09-30,2016-08-19,2016-08-19,40.4613141706695,-79.99010219224017,Spring Garden,1,24,1-5,1,1,Northern,Riverview
281664,0024D00152000000,"1542 LOWRIE ST, PITTSBURGH, PA 15212",0024D00152,32500,2002-03-21,2009-06-15,2016-10-28,2016-10-28,40.46239439219824,-79.98400016517012,Troy Hill,1,24,1-2,1,1,Northern,Riverview
281665,0046S00200000000,"631 RISING MAIN AVE, PITTSBURGH, PA 15212",0046S00200,1000,1994-04-01,2005-06-28,2016-10-28,2016-10-28,40.464271657329114,-80.00155160706677,Fineview,1,25,1-6,1,1,Northern,Riverview
281666,0046S00206000000,"639 RISING MAIN AVE, PITTSBURGH, PA 15212",0046S00206,1,,2006-02-06,2016-10-28,2016-10-28,40.46429117334042,-80.00126291860803,Fineview,1,25,1-6,1,1,Northern,Riverview
281667,0046S00152000000,"TOBOGGAN ST, PITTSBURGH, PA 15212",0046S00152,4000,2001-07-23,2011-10-27,2016-10-28,2016-10-28,40.464721421947225,-80.00183733669431,Fineview,1,25,1-6,1,1,Northern,Riverview
281668,0046S00193000000,"621 TOBOGGAN ST, PITTSBURGH, PA 15212",0046S00193,6000,1990-08-01,1990-08-01,2016-10-28,2016-10-28,40.46446149736892,-80.00206868988788,Fineview,1,25,1-6,1,1,Northern,Riverview
281669,0046S00153000000,"630 TOBOGGAN ST, PITTSBURGH, PA 15212",0046S00153,4000,2001-07-23,2012-03-01,2016-10-28,2016-10-28,40.46473262437238,-80.00193088619771,Fineview,1,25,1-6,1,1,Northern,Riverview
281670,0046S00195000000,"625 TOBOGGAN ST, PITTSBURGH, PA 15212",0046S00195,3500,1990-02-14,1990-02-14,2016-10-28,2016-10-28,40.46448080046311,-80.00179343870482,Fineview,1,25,1-6,1,1,Northern,Riverview
281671,0046S00149000000,"638 TOBOGGAN ST, PITTSBURGH, PA 15212",0046S00149,1,2002-10-25,2013-07-01,2016-10-28,2016-10-28,40.464726544834605,-80.00160228371827,Fineview,1,25,1-6,1,1,Northern,Riverview
281672,0046S00198000000,"627 RISING MAIN AVE, PITTSBURGH, PA 15212",0046S00198,7000,1992-03-17,1992-03-17,2016-10-28,2016-10-28,40.46431625448954,-80.00170960061662,Fineview,1,25,1-6,1,1,Northern,Riverview
281673,0046S00205000000,"637 RISING MAIN AVE, PITTSBURGH, PA 15212",0046S00205,9680,1994-04-01,1994-04-01,2016-10-28,2016-10-28,40.46427414785877,-80.0013692118526,Fineview,1,25,1-6,1,1,Northern,Riverview
281674,0116J00308000000,"323 VENTURE ST, PITTSBURGH, PA 15214",0116J00308,62762,2002-02-18,2016-02-09,,2016-02-16,40.48495246738656,-80.01222087779662,Perry North,1,26,1-15,1,1,Northern,Riverview
281675,0162P00065000000,"GLENSIDE ST, PITTSBURGH, PA 15214",0162P00065,3089,2002-07-31,2011-03-21,2016-04-29,2016-04-29,40.493285364574135,-80.02487829341966,Perry North,1,26,1-15,1,1,Northern,Riverview
281676,0077K00078000000,"MILROY ST, PITTSBURGH, PA 15214",0077K00078,6834,2002-07-25,2006-03-07,2016-04-29,2016-04-29,40.47682940542705,-80.00970530536306,Perry North,1,26,1-15,1,1,Northern,Riverview
281677,0115F00045000000,"OAKDALE ST, PITTSBURGH, PA 15214",0115F00045,11029,2002-06-24,2002-06-24,2016-04-29,2016-04-29,40.488672291835286,-80.0262965887439,Perry North,1,26,1-15,1,1,Northern,Riverview
281678,0115D00290000000,"20 MAIRDALE ST, PITTSBURGH, PA 15214",0115D00290,69900,2004-01-15,2006-02-01,2016-08-19,2016-08-19,40.490100278307914,-80.01905099968526,Perry North,1,26,1-15,1,1,Northern,Riverview
281679,0075B00309000000,"GRENADA ST, PITTSBURGH, PA 15212",0075B00309,13970,1980-01-22,1980-01-22,2016-04-29,2016-04-29,40.480616561198325,-80.04271991166367,Brighton Heights,1,27,1-14,1,1,Northern,Riverview
281680,0075B00310000000,"3632 GRENADA ST, PITTSBURGH, PA 15212",0075B00310,23161,2001-03-20,2009-03-02,2016-04-29,2016-04-29,40.48071127623876,-80.04272922837421,Brighton Heights,1,27,1-14,1,1,Northern,Riverview
281681,0075B00305000000,"3622 GRENADA ST, PITTSBURGH, PA 15212",0075B00305,2277,2004-12-30,2007-08-21,2016-04-29,2016-04-29,40.48040753481753,-80.04268807971606,Brighton Heights,1,27,1-14,1,1,Northern,Riverview
281682,0075B00307000000,"GRENADA ST, PITTSBURGH, PA 15212",0075B00307,3681,2002-02-22,2007-08-21,2016-04-29,2016-04-29,40.48052324658006,-80.04270524865501,Brighton Heights,1,27,1-14,1,1,Northern,Riverview
281683,0045A00257000000,"DICKSON ST, PITTSBURGH, PA 15212",0045A00257,4590,1986-02-25,1986-02-25,2016-04-29,2016-04-29,40.470278400403295,-80.02881310931207,Marshall-Shadeland,1,27,1-14,1,1,Northern,Riverview
281684,0044C00264000000,"3016 COHUTTA ST, PITTSBURGH, PA 15212",0044C00264,23488,1996-07-05,1996-07-05,2016-04-29,2016-04-29,40.47144618923748,-80.03701062951744,Marshall-Shadeland,1,27,1-14,1,1,Northern,Riverview
281685,0076K00109000000,"CENTRAL AVE, PITTSBURGH, PA 15212",0076K00109,10266,2002-06-10,2008-09-17,2016-04-29,2016-04-29,40.475411833592034,-80.02852199513654,Marshall-Shadeland,1,27,1-14,1,1,Northern,Riverview
281686,0076B00047000000,"DAVIS AVE, PITTSBURGH, PA 15212",0076B00047,27998,2002-12-10,2008-08-05,2016-04-29,2016-04-29,40.48156120930864,-80.025139268533,Marshall-Shadeland,1,27,1-14,1,1,Northern,Riverview
281687,0045N00074000100,"1308 MARSHALL AVE, PITTSBURGH, PA 15212",0045N000740001,6565,2002-02-25,2005-03-18,2016-08-19,2016-08-19,40.463805927802646,-80.02877850041101,Marshall-Shadeland,1,27,1-9,1,1,Northern,Riverview
281688,0076F00207000000,"1027 HALL ST, PITTSBURGH, PA 15212",0076F00207,14000,2002-02-19,2002-02-19,2016-08-19,2016-08-19,40.477539841345234,-80.026890177717,Marshall-Shadeland,1,27,1-14,1,1,Northern,Riverview
281689,0045N00074000000,"1310 MARSHALL AVE, PITTSBURGH, PA 15212",0045N00074,1,1985-05-10,1985-05-10,2016-08-19,2016-08-19,40.46377515902242,-80.02882001688118,Marshall-Shadeland,1,27,1-9,1,1,Northern,Riverview
281690,0076F00208000000,"1027 HALL ST, PITTSBURGH, PA 15212",0076F00208,14000,2002-02-19,2002-02-19,2016-08-19,2016-08-19,40.477383848861216,-80.0269320355059,Marshall-Shadeland,1,27,1-14,1,1,Northern,Riverview
281691,0045N00302000000,"CALIFORNIA AVE, PITTSBURGH, PA 15212",0045N00302,15000,1998-04-14,2006-01-20,2016-10-28,2016-10-28,40.463083701580565,-80.03123866259939,Marshall-Shadeland,1,27,1-9,1,1,Northern,Riverview
281692,0006G00185000000,"AUGUSTA ST, PITTSBURGH, PA 15211",0006G00185,8719,2002-05-13,2012-02-22,2016-04-29,2016-04-29,40.43819453719399,-80.02245602686465,Duquesne Heights,2,19,4-1,3,5,Southern,Emerald
281693,0004L00107000000,"RUTH ST, PITTSBURGH, PA 15211",0004L00107,5825,2002-09-30,2002-09-30,2016-04-29,2016-04-29,40.426131936312416,-80.005399699182,Mount Washington,2,19,4-5,3,5,Southern,Emerald
281694,0004P00103000000,"SOUTHERN AVE, PITTSBURGH, PA 15211",0004P00103,9191,1989-06-16,1989-06-16,2016-04-29,2016-04-29,40.42360956251473,-80.0115275122699,Mount Washington,2,19,4-27,3,5,Southern,Emerald
281695,0004N00169000000,"28 MARNE WAY, PITTSBURGH, PA 15211",0004N00169,1367,2002-03-28,2015-11-02,2016-04-29,2016-04-29,40.423851344373766,-80.01293133472305,Mount Washington,2,19,4-27,3,5,Southern,Emerald
281696,0042D00143000000,"W CARSON ST, PITTSBURGH, PA 15204",0042D00143,18118,1999-04-21,1999-04-21,2016-04-29,2016-04-29,40.461406687340016,-80.05055430403164,Esplen,2,20,1-27,6,5,Northern,Emerald
281697,0019S00068000000,"CHINA ST, PITTSBURGH, PA 15220",0019S00068,320,2002-02-22,2013-03-06,2016-04-29,2016-04-29,40.434145027709626,-80.0337350151499,West End,2,20,1-17,6,5,Northern,Emerald
281698,0063B00135000000,"BANKSVILLE AVE, PITTSBURGH, PA 15216",0063B00135,2181,1998-02-05,1998-02-05,2016-04-29,2016-04-29,40.40344455633498,-80.04192421816883,Banksville,2,20,4-9,6,5,Northern,Emerald
281699,0043R00172000000,"3336 OREGON ST, PITTSBURGH, PA 15204",0043R00172,35000,2002-05-17,2013-06-25,2016-08-19,2016-08-19,40.46260405911504,-80.05383963536578,Esplen,2,20,1-27,6,5,Northern,Emerald
281700,0020R00002000000,"728 RUDOLPH ST, PITTSBURGH, PA 15220",0020R00002,24500,2002-09-04,2007-10-22,2016-10-28,2016-10-28,40.445422185144174,-80.0409698465401,Elliott,2,20,1-17,6,5,Northern,Emerald
281701,0042H00293000000,"3133 BRUNOT AVE, PITTSBURGH, PA 15204",0042H00293,74000,2002-02-14,2009-01-29,2016-10-28,2016-10-28,40.45951542408596,-80.05158955377416,Sheraden,2,20,1-16,6,5,Northern,Emerald
281702,0070C00330000000,"KATHY DR, PITTSBURGH, PA 15204",0070C00330,32569,,,2016-04-29,2016-04-29,40.45111390332156,-80.07355198675198,Windgap,2,28,1-16,6,5,Northern,Emerald
281703,0071J00115000000,"3740 WINDGAP AVE, PITTSBURGH, PA 15204",0071J00115,4185,2002-09-30,2012-08-31,2016-04-29,2016-04-29,40.45727449625274,-80.07941256649353,Windgap,2,28,1-16,6,5,Northern,Emerald
281704,0070E00085000000,"LASSEN ST, PITTSBURGH, PA 15205",0070E00085,1856,1999-02-17,1999-02-17,2016-04-29,2016-04-29,40.44811869708521,-80.0790913518505,Fairywood,2,28,1-16,6,5,Northern,Emerald
281705,0070E00042000000,"FAIRYWOOD ST, PITTSBURGH, PA 15205",0070E00042,50474,1989-01-25,1989-01-25,2016-04-29,2016-04-29,40.44830802216471,-80.08083133604687,Fairywood,2,28,1-16,6,5,Northern,Emerald
281706,0070E00041000000,"FAIRYWOOD ST, PITTSBURGH, PA 15205",0070E00041,16521,1989-01-25,1989-01-25,2016-04-29,2016-04-29,40.44825313243712,-80.08075512027823,Fairywood,2,28,1-16,6,5,Northern,Emerald
281707,0070E00040000000,"502 FAIRYWOOD ST, PITTSBURGH, PA 15205",0070E00040,11797,2001-05-16,2010-12-17,2016-04-29,2016-04-29,40.44819886795516,-80.08067789185779,Fairywood,2,28,1-16,6,5,Northern,Emerald
281708,0070J00047000000,"427 FAIRYWOOD ST, PITTSBURGH, PA 15205",0070J00047,10911,2002-02-22,2013-12-03,2016-04-29,2016-04-29,40.44774929647794,-80.08077915255167,Fairywood,2,28,1-16,6,5,Northern,Emerald
281709,0070J00049000000,"FAIRYWOOD ST, PITTSBURGH, PA 15205",0070J00049,13799,2002-02-27,2007-02-07,2016-04-29,2016-04-29,40.44764512637615,-80.08063273871342,Fairywood,2,28,1-16,6,5,Northern,Emerald
281710,0070E00039000000,"500 FAIRYWOOD ST, PITTSBURGH, PA 15205",0070E00039,3046,2001-10-29,2014-05-16,2016-04-29,2016-04-29,40.448142945236896,-80.08060113367047,Fairywood,2,28,1-16,6,5,Northern,Emerald
281711,0070J00041000000,"416 FAIRYWOOD ST, PITTSBURGH, PA 15205",0070J00041,14592,2019-01-03,2007-04-20,2016-04-29,2016-04-29,40.447753388004855,-80.08005663777237,Fairywood,2,28,1-16,6,5,Northern,Emerald
281712,0107M00077000000,"2145 MAZETTE PL, PITTSBURGH, PA 15205",0107M00077,6000,2002-12-24,2011-02-03,2016-10-28,2016-10-28,40.44553980093028,-80.08458043916485,Fairywood,2,28,1-16,6,5,Northern,Emerald
281713,0032F00163000000,"SCHULER ST, PITTSBURGH, PA 15210",0032F00163,33422,1995-11-21,1995-11-21,2016-04-29,2016-04-29,40.40941267315509,-79.97658599020998,St. Clair,3,16,4-8,3,4,Southern,Schenley
281714,0032D00265000000,"917 PARKWOOD RD, PITTSBURGH, PA 15210",0032D00265,9000,1991-06-11,1991-06-11,2016-08-19,2016-08-19,40.41241604272897,-79.97076627440865,Arlington,3,16,4-8,3,4,Southern,Schenley
281715,0032D00134000000,"2914 ORIN ST, PITTSBURGH, PA 15210",0032D00134,16500,1987-02-03,1987-02-03,2016-08-19,2016-08-19,40.41342111958146,-79.96687341446552,Arlington,3,16,4-8,3,4,Southern,Schenley
281716,0032D00142000000,"ORIN ST, PITTSBURGH, PA 15210",0032D00142,0,,,2016-08-19,2016-08-19,40.41339782402149,-79.96661677638807,Arlington,3,16,4-8,3,4,Southern,Schenley
281717,0032F00052000000,"BURR ST, PITTSBURGH, PA 15210",0032F00052,0,,,2016-08-19,2016-08-19,40.40958611739509,-79.97854419846914,Mt. Oliver,3,16,4-8,3,4,Southern,Schenley
281718,0013C00383000000,"490 STERLING ST, PITTSBURGH, PA 15203",0013C00383,1,2001-12-24,2001-12-24,2016-08-19,2016-08-19,40.42176186352167,-79.97421879259218,South Side Slopes,3,16,4-22,3,4,Southern,Schenley
281719,0003R00047000000,"40 WELSH WAY, PITTSBURGH, PA 15203",0003R00047,2000,1990-01-29,2011-03-14,2016-10-28,2016-10-28,40.42451046385804,-79.98747987723834,South Side Slopes,3,17,4-3,3,4,Southern,Schenley
281720,0014G00053000000,"ARLINGTON AVE, PITTSBURGH, PA 15210",0014G00053,10509,2001-05-31,2001-05-31,2016-04-29,2016-04-29,40.41932713729946,-79.98964190530803,Allentown,3,18,4-6,3,4,Southern,Emerald
281721,0015G00220000000,"CLIMAX ST, PITTSBURGH, PA 15210",0015G00220,5864,1985-08-05,1985-08-05,2016-04-29,2016-04-29,40.41938268940349,-80.00537922507513,Beltzhoover,3,18,4-16,3,4,Southern,Emerald
281722,0015G00227000000,"CLIMAX ST, PITTSBURGH, PA 15210",0015G00227,9267,2001-05-31,2014-04-21,2016-04-29,2016-04-29,40.41952676130003,-80.00478090131634,Beltzhoover,3,18,4-16,3,4,Southern,Emerald
281723,0015L00121000000,"SYLVANIA AVE, PITTSBURGH, PA 15210",0015L00121,7482,1992-03-31,1992-03-31,2016-04-29,2016-04-29,40.416894072812845,-80.00633714622921,Beltzhoover,3,18,4-16,3,4,Southern,Emerald
281724,0015L00120000000,"SYLVANIA AVE, PITTSBURGH, PA 15210",0015L00120,5415,2019-01-03,2005-02-24,2016-04-29,2016-04-29,40.41687205221013,-80.00641878879382,Beltzhoover,3,18,4-16,3,4,Southern,Emerald
281725,0015G00218000000,"CLIMAX ST, PITTSBURGH, PA 15210",0015G00218,1905,2002-06-03,2002-06-03,2016-04-29,2016-04-29,40.419340295603504,-80.00554528203297,Beltzhoover,3,18,4-16,3,4,Southern,Emerald
281726,0015M00191000000,"SYLVANIA AVE, PITTSBURGH, PA 15210",0015M00191,4888,2002-10-07,2006-02-14,2016-04-29,2016-04-29,40.417179006414486,-80.0016736011416,Beltzhoover,3,18,4-16,3,4,Southern,Emerald
281727,0015H00078000000,"326 LOYAL WAY, PITTSBURGH, PA 15210",0015H00078,4892,2002-02-04,2011-04-27,2016-04-29,2016-04-29,40.419401531060416,-80.001308065854,Beltzhoover,3,18,4-16,3,4,Southern,Emerald
281728,0015G00146000000,"INDUSTRY ST, PITTSBURGH, PA 15210",0015G00146,7328,2000-02-10,2006-11-15,2016-04-29,2016-04-29,40.419820555497566,-80.00500325710405,Beltzhoover,3,18,4-16,3,4,Southern,Emerald
281729,0015G00216000000,"CLIMAX ST, PITTSBURGH, PA 15210",0015G00216,16891,2001-05-21,2001-05-21,2016-04-29,2016-04-29,40.41931350581429,-80.00565629674195,Beltzhoover,3,18,4-16,3,4,Southern,Emerald
281730,0015G00041000000,"W WARRINGTON AVE, PITTSBURGH, PA 15210",0015G00041,9706,1989-11-15,1989-11-15,2016-04-29,2016-04-29,40.420468122637786,-80.00578445405233,Beltzhoover,3,18,4-16,3,4,Southern,Emerald
281731,0015G00105000000,"INDUSTRY ST, PITTSBURGH, PA 15210",0015G00105,9728,2001-03-30,2003-11-26,2016-04-29,2016-04-29,40.42015596205563,-80.00539805274582,Beltzhoover,3,18,4-16,3,4,Southern,Emerald
281732,0015P00060000000,"FRAMPTON AVE, PITTSBURGH, PA 15210",0015P00060,3243,1984-06-22,1984-06-22,2016-04-29,2016-04-29,40.415387215833086,-80.00824855728257,Beltzhoover,3,18,4-16,3,4,Southern,Emerald
281733,0015G00106000000,"119 INDUSTRY ST, PITTSBURGH, PA 15210",0015G00106,22349,1996-09-04,1996-09-04,2016-04-29,2016-04-29,40.42017430336495,-80.00530709991189,Beltzhoover,3,18,4-16,3,4,Southern,Emerald
281734,0015P00013000000,"SYLVANIA AVE, PITTSBURGH, PA 15210",0015P00013,4796,1998-02-24,2006-02-24,2016-04-29,2016-04-29,40.4159805469947,-80.00850664792242,Beltzhoover,3,18,4-16,3,4,Southern,Emerald
281735,0015P00063000000,"FRAMPTON AVE, PITTSBURGH, PA 15210",0015P00063,3309,1995-05-15,2007-12-28,2016-04-29,2016-04-29,40.41527573749233,-80.00847977313542,Beltzhoover,3,18,4-16,3,4,Southern,Emerald
281736,0015P00056000000,"FRAMPTON AVE, PITTSBURGH, PA 15210",0015P00056,1722,1991-08-28,1991-08-28,2016-04-29,2016-04-29,40.415545638475216,-80.00794811396426,Beltzhoover,3,18,4-16,3,4,Southern,Emerald
281737,0015G00158000000,"INDUSTRY ST, PITTSBURGH, PA 15210",0015G00158,2656,1995-05-24,1995-05-24,2016-04-29,2016-04-29,40.41962697241426,-80.00589389909561,Beltzhoover,3,18,4-16,3,4,Southern,Emerald
281738,0015L00157000000,"CHALFONT ST, PITTSBURGH, PA 15210",0015L00157,9261,1991-11-04,1991-11-04,2016-04-29,2016-04-29,40.41638940928132,-80.00404749992893,Beltzhoover,3,18,4-16,3,4,Southern,Emerald
281739,0015G00034000000,"W WARRINGTON AVE, PITTSBURGH, PA 15210",0015G00034,3164,1994-01-28,1994-01-28,2016-04-29,2016-04-29,40.42057131640826,-80.00516261561084,Beltzhoover,3,18,4-16,3,4,Southern,Emerald
281740,0015R00020000000,"16 FRAMPTON AVE, PITTSBURGH, PA 15210",0015R00020,11251,2002-06-24,2007-07-30,2016-04-29,2016-04-29,40.41579429084081,-80.00746005072928,Beltzhoover,3,18,4-16,3,4,Southern,Emerald
281741,0015G00281000000,"304 GEARING AVE, PITTSBURGH, PA 15210",0015G00281,11054,2001-03-12,2001-03-12,2016-04-29,2016-04-29,40.41882198319185,-80.00575162526061,Beltzhoover,3,18,4-16,3,4,Southern,Emerald
281742,0015R00074000000,"TAFT AVE, PITTSBURGH, PA 15210",0015R00074,13180,1993-12-07,1993-12-07,2016-04-29,2016-04-29,40.41453617862008,-80.00681768545257,Beltzhoover,3,18,4-16,3,4,Southern,Emerald
281743,0015L00113000000,"SYLVANIA AVE, PITTSBURGH, PA 15210",0015L00113,4830,1988-07-22,1988-07-22,2016-04-29,2016-04-29,40.41668718629809,-80.0069986168915,Beltzhoover,3,18,4-16,3,4,Southern,Emerald
281744,0015K00252000000,"SYLVANIA AVE, PITTSBURGH, PA 15210",0015K00252,6898,2000-07-25,2003-03-14,2016-04-29,2016-04-29,40.416356717151565,-80.00802307719121,Beltzhoover,3,18,4-16,3,4,Southern,Emerald
281745,0015G00130000000,"INDUSTRY ST, PITTSBURGH, PA 15210",0015G00130,5063,1985-12-11,1985-12-11,2016-04-29,2016-04-29,40.420158784750384,-80.00366958653542,Beltzhoover,3,18,4-16,3,4,Southern,Emerald
281746,0015L00115000000,"SYLVANIA AVE, PITTSBURGH, PA 15210",0015L00115,17385,1987-01-28,1987-01-28,2016-04-29,2016-04-29,40.41673963002364,-80.00683417334125,Beltzhoover,3,18,4-16,3,4,Southern,Emerald
281747,0015G00131000000,"INDUSTRY ST, PITTSBURGH, PA 15210",0015G00131,5232,1986-01-03,1986-01-03,2016-04-29,2016-04-29,40.42013940611167,-80.00375102106288,Beltzhoover,3,18,4-16,3,4,Southern,Emerald
281748,0015L00105000000,"SYLVANIA AVE, PITTSBURGH, PA 15210",0015L00105,7891,1996-06-28,2009-06-02,2016-04-29,2016-04-29,40.4165783844783,-80.00754430720269,Beltzhoover,3,18,4-16,3,4,Southern,Emerald
281749,0015L00101000000,"SYLVANIA AVE, PITTSBURGH, PA 15210",0015L00101,4544,2002-08-15,2006-06-05,2016-04-29,2016-04-29,40.41645163747791,-80.0077380107592,Beltzhoover,3,18,4-16,3,4,Southern,Emerald
281750,0015G00139000000,"INDUSTRY ST, PITTSBURGH, PA 15210",0015G00139,7960,1983-12-13,1983-12-13,2016-04-29,2016-04-29,40.41998629093201,-80.00435878137318,Beltzhoover,3,18,4-16,3,4,Southern,Emerald
281751,0015M00099000000,"300 CEDARHURST ST, PITTSBURGH, PA 15210",0015M00099,14975,1998-01-28,2006-09-25,2016-04-29,2016-04-29,40.41802756678844,-80.0021892500615,Beltzhoover,3,18,4-16,3,4,Southern,Emerald
281752,0015G00145000000,"INDUSTRY ST, PITTSBURGH, PA 15210",0015G00145,19826,1994-01-28,1994-01-28,2016-04-29,2016-04-29,40.419841229025,-80.00491546281334,Beltzhoover,3,18,4-16,3,4,Southern,Emerald
281753,0015G00223000000,"CLIMAX ST, PITTSBURGH, PA 15210",0015G00223,23432,1988-07-08,1988-07-08,2016-04-29,2016-04-29,40.41944233862959,-80.00512658997667,Beltzhoover,3,18,4-16,3,4,Southern,Emerald
281754,0015P00061000000,"FRAMPTON AVE, PITTSBURGH, PA 15210",0015P00061,3809,1984-08-02,1984-08-02,2016-04-29,2016-04-29,40.41535123456226,-80.00832462488789,Beltzhoover,3,18,4-16,3,4,Southern,Emerald
281755,0015G00142000000,"INDUSTRY ST, PITTSBURGH, PA 15210",0015G00142,2352,1999-07-27,1999-07-27,2016-04-29,2016-04-29,40.41990345580869,-80.00465869903701,Beltzhoover,3,18,4-16,3,4,Southern,Emerald
281756,0015G00273000000,"CLIMAX ST, PITTSBURGH, PA 15210",0015G00273,4502,2002-07-16,2005-04-04,2016-04-29,2016-04-29,40.41898411967414,-80.00522140393521,Beltzhoover,3,18,4-16,3,4,Southern,Emerald
281757,0015R00014000000,"TAFT AVE, PITTSBURGH, PA 15210",0015R00014,13963,1996-11-27,1996-11-27,2016-04-29,2016-04-29,40.41593006557829,-80.0073342015456,Beltzhoover,3,18,4-16,3,4,Southern,Emerald
281758,0015G00132000000,"INDUSTRY ST, PITTSBURGH, PA 15210",0015G00132,12208,1992-01-15,1992-01-15,2016-04-29,2016-04-29,40.42011986589611,-80.00383271759593,Beltzhoover,3,18,4-16,3,4,Southern,Emerald
281759,0015R00075000000,"TAFT AVE, PITTSBURGH, PA 15210",0015R00075,9614,2002-05-03,2011-05-05,2016-04-29,2016-04-29,40.41459229710792,-80.00687541862926,Beltzhoover,3,18,4-16,3,4,Southern,Emerald
281760,0015H00270000000,"INDUSTRY ST, PITTSBURGH, PA 15210",0015H00270,13847,1992-06-22,1992-06-22,2016-04-29,2016-04-29,40.420374914909125,-80.00284202715902,Beltzhoover,3,18,4-16,3,4,Southern,Emerald
281761,0015L00135000000,"MONTOOTH ST, PITTSBURGH, PA 15210",0015L00135,9177,1989-02-01,1989-02-01,2016-04-29,2016-04-29,40.41627148889173,-80.00622675460994,Beltzhoover,3,18,4-16,3,4,Southern,Emerald
281762,0015K00253000000,"SYLVANIA AVE, PITTSBURGH, PA 15210",0015K00253,28244,1996-09-16,1996-09-16,2016-04-29,2016-04-29,40.41638328140184,-80.00794469060537,Beltzhoover,3,18,4-16,3,4,Southern,Emerald
281763,0015G00182000000,"INDUSTRY ST, PITTSBURGH, PA 15210",0015G00182,7632,1988-01-14,1988-01-14,2016-04-29,2016-04-29,40.41931818528935,-80.00745651709875,Beltzhoover,3,18,4-16,3,4,Southern,Emerald
281764,0015G00228000000,"CLIMAX ST, PITTSBURGH, PA 15210",0015G00228,13148,1999-02-10,2008-06-03,2016-04-29,2016-04-29,40.41954950336456,-80.00469201610126,Beltzhoover,3,18,4-16,3,4,Southern,Emerald
281765,0014J00296000000,"510 CURTIN AVE, PITTSBURGH, PA 15210",0014J00296,15622,2000-05-02,2005-02-10,2016-04-29,2016-04-29,40.41794370931047,-79.99908484999045,Beltzhoover,3,18,4-21,3,4,Southern,Emerald
281766,0015M00300000000,"300 CHALFONT ST, PITTSBURGH, PA 15210",0015M00300,8469,2002-09-26,2006-04-06,2016-04-29,2016-04-29,40.41642308109268,-80.00220070716587,Beltzhoover,3,18,4-16,3,4,Southern,Emerald
281767,0015M00188000000,"SYLVANIA AVE, PITTSBURGH, PA 15210",0015M00188,3619,2002-02-20,2008-01-29,2016-04-29,2016-04-29,40.417183296218326,-80.00141081524333,Beltzhoover,3,18,4-16,3,4,Southern,Emerald
281768,0015M00303000000,"CHALFONT ST, PITTSBURGH, PA 15210",0015M00303,3323,2002-05-17,2011-03-03,2016-04-29,2016-04-29,40.41641114388308,-80.0024430027656,Beltzhoover,3,18,4-16,3,4,Southern,Emerald
281769,0015P00062000000,"FRAMPTON AVE, PITTSBURGH, PA 15210",0015P00062,2991,1995-05-15,2007-12-28,2016-04-29,2016-04-29,40.41531131966149,-80.00840082883666,Beltzhoover,3,18,4-16,3,4,Southern,Emerald
281770,0015L00119000000,"SYLVANIA AVE, PITTSBURGH, PA 15210",0015L00119,11210,1981-12-01,1981-12-01,2016-04-29,2016-04-29,40.416848841216165,-80.00650597939203,Beltzhoover,3,18,4-16,3,4,Southern,Emerald
281771,0015H00241000000,"HABERMAN AVE, PITTSBURGH, PA 15210",0015H00241,7084,2002-08-27,2005-03-02,2016-04-29,2016-04-29,40.42041240906729,-80.00216546468097,Beltzhoover,3,18,4-16,3,4,Southern,Emerald
281772,0015G00143000000,"INDUSTRY ST, PITTSBURGH, PA 15210",0015G00143,13566,1999-05-11,1999-05-11,2016-04-29,2016-04-29,40.41988129472719,-80.00473942535756,Beltzhoover,3,18,4-16,3,4,Southern,Emerald
281773,0015G00275000000,"CLIMAX ST, PITTSBURGH, PA 15210",0015G00275,1348,2002-06-26,2006-10-18,2016-04-29,2016-04-29,40.41893825825232,-80.00532947601073,Beltzhoover,3,18,4-16,3,4,Southern,Emerald
281774,0015G00038000000,"W WARRINGTON AVE, PITTSBURGH, PA 15210",0015G00038,6381,1991-05-01,1991-05-01,2016-04-29,2016-04-29,40.42051075042821,-80.00551309750361,Beltzhoover,3,18,4-16,3,4,Southern,Emerald
281775,0015G00108000000,"INDUSTRY ST, PITTSBURGH, PA 15210",0015G00108,12569,1996-07-31,1996-07-31,2016-04-29,2016-04-29,40.420203945241965,-80.00517697850192,Beltzhoover,3,18,4-16,3,4,Southern,Emerald
281776,0015H00260000000,"CLIMAX ST, PITTSBURGH, PA 15210",0015H00260,1278,1997-02-18,2012-01-05,2016-04-29,2016-04-29,40.41982711773032,-80.00360149863833,Beltzhoover,3,18,4-16,3,4,Southern,Emerald
281777,0015P00057000000,"FRAMPTON AVE, PITTSBURGH, PA 15210",0015P00057,2991,1977-10-30,2007-12-28,2016-04-29,2016-04-29,40.41550738968717,-80.00802737161115,Beltzhoover,3,18,4-16,3,4,Southern,Emerald
281778,0015M00189000000,"SYLVANIA AVE, PITTSBURGH, PA 15210",0015M00189,2869,2001-08-27,2001-08-27,2016-04-29,2016-04-29,40.41718142213298,-80.0014967239925,Beltzhoover,3,18,4-16,3,4,Southern,Emerald
281779,0015H00227000000,"VINCENT ST, PITTSBURGH, PA 15210",0015H00227,5991,2002-03-07,2003-02-06,2016-04-29,2016-04-29,40.420358021997394,-80.00164738779907,Beltzhoover,3,18,4-16,3,4,Southern,Emerald
281780,0015G00104000000,"INDUSTRY ST, PITTSBURGH, PA 15210",0015G00104,5324,1982-01-29,1982-01-29,2016-04-29,2016-04-29,40.42014047267431,-80.00549093003923,Beltzhoover,3,18,4-16,3,4,Southern,Emerald
281781,0015G00140000000,"INDUSTRY ST, PITTSBURGH, PA 15210",0015G00140,7729,2001-10-24,2001-10-24,2016-04-29,2016-04-29,40.41995812272086,-80.00447168885472,Beltzhoover,3,18,4-16,3,4,Southern,Emerald
281782,0015G00238000000,"CLIMAX ST, PITTSBURGH, PA 15210",0015G00238,5493,1983-06-08,1983-06-08,2016-04-29,2016-04-29,40.41976874445111,-80.00386048261964,Beltzhoover,3,18,4-16,3,4,Southern,Emerald
281783,0014J00237000000,"CURTIN AVE, PITTSBURGH, PA 15210",0014J00237,1297,1986-01-27,1986-01-27,2016-04-29,2016-04-29,40.41795315793577,-79.99854686663195,Beltzhoover,3,18,4-21,3,4,Southern,Emerald
281784,0015R00017000000,"TAFT AVE, PITTSBURGH, PA 15210",0015R00017,5648,1994-08-17,1994-08-17,2016-04-29,2016-04-29,40.41581613010746,-80.00728392651182,Beltzhoover,3,18,4-16,3,4,Southern,Emerald
281785,0015H00253000000,"CLIMAX ST, PITTSBURGH, PA 15210",0015H00253,9216,1983-02-04,1983-02-04,2016-04-29,2016-04-29,40.41997943380456,-80.00299841138104,Beltzhoover,3,18,4-16,3,4,Southern,Emerald
281786,0015M00042000000,"CEDARHURST ST, PITTSBURGH, PA 15210",0015M00042,2169,1991-02-11,1991-02-11,2016-04-29,2016-04-29,40.41850963695887,-80.00128783230248,Beltzhoover,3,18,4-16,3,4,Southern,Emerald
281787,0015G00225000000,"PROCTOR WAY, PITTSBURGH, PA 15210",0015G00225,2859,1997-03-31,1997-03-31,2016-04-29,2016-04-29,40.41950514979551,-80.0048690339442,Beltzhoover,3,18,4-16,3,4,Southern,Emerald
281788,0015H00259000000,"CLIMAX ST, PITTSBURGH, PA 15210",0015H00259,4951,1991-11-21,1991-11-21,2016-04-29,2016-04-29,40.41985005754239,-80.00351182639908,Beltzhoover,3,18,4-16,3,4,Southern,Emerald
281789,0015G00098000000,"101 INDUSTRY ST, PITTSBURGH, PA 15210",0015G00098,2864,2019-01-03,2003-09-04,2016-04-29,2016-04-29,40.41995957183455,-80.00590950452019,Beltzhoover,3,18,4-16,3,4,Southern,Emerald
281790,0015P00065000000,"FRAMPTON AVE, PITTSBURGH, PA 15210",0015P00065,3041,1995-05-15,2012-10-12,2016-04-29,2016-04-29,40.415233228709646,-80.00859322253135,Beltzhoover,3,18,4-16,3,4,Southern,Emerald
281791,0015G00279000000,"GEARING AVE, PITTSBURGH, PA 15210",0015G00279,11131,1987-02-04,1987-02-04,2016-04-29,2016-04-29,40.4189291098072,-80.00573412269348,Beltzhoover,3,18,4-16,3,4,Southern,Emerald
281792,0015P00014000000,"28 SYLVANIA AVE, PITTSBURGH, PA 15210",0015P00014,11006,1998-02-24,2009-12-09,2016-04-29,2016-04-29,40.41594029606004,-80.00857840382571,Beltzhoover,3,18,4-16,3,4,Southern,Emerald
281793,0015L00116000000,"SYLVANIA AVE, PITTSBURGH, PA 15210",0015L00116,4248,,,2016-04-29,2016-04-29,40.416763153081554,-80.00674898987539,Beltzhoover,3,18,4-16,3,4,Southern,Emerald
281794,0004H00022000000,"200 ARLINGTON AVE, PITTSBURGH, PA 15203",0004H00022,26512,2002-08-21,2007-05-07,2016-04-29,2016-04-29,40.429581937736856,-79.99966904352193,South Shore,3,18,4-27,3,5,Southern,Emerald
281795,0014C00346000000,"955 MANTON WAY, PITTSBURGH, PA 15210",0014C00346,1,2001-03-19,2001-03-19,2016-08-19,2016-08-19,40.42149764906577,-79.98958007385212,Allentown,3,18,4-6,3,4,Southern,Emerald
281796,0014C00287000000,"961 MANTON WAY, PITTSBURGH, PA 15210",0014C00287,22000,2002-02-11,2015-05-29,2016-08-19,2016-08-19,40.42149963580311,-79.98949344186252,Allentown,3,18,4-6,3,4,Southern,Emerald
281797,0015R00250000000,"813 GEARING AVE, PITTSBURGH, PA 15210",0015R00250,17645,2001-10-05,2006-08-11,2016-08-19,2016-08-19,40.41531480216456,-80.0045849164215,Beltzhoover,3,18,4-16,3,4,Southern,Emerald
281798,0014N00081000000,"MICHIGAN ST, PITTSBURGH, PA 15210",0014N00081,7000,1998-07-29,2011-02-03,2016-08-19,2016-08-19,40.41572835683857,-79.99853453138914,Beltzhoover,3,18,4-21,3,4,Southern,Emerald
281799,0015R00245000000,"GEARING AVE, PITTSBURGH, PA 15210",0015R00245,700,2001-04-02,2001-04-02,2016-08-19,2016-08-19,40.41499730873389,-80.00457230281566,Beltzhoover,3,18,4-16,3,4,Southern,Emerald
281800,0015R00249000000,"815 GEARING AVE, PITTSBURGH, PA 15210",0015R00249,1,1991-10-23,1991-10-23,2016-08-19,2016-08-19,40.415243647336816,-80.00457998088248,Beltzhoover,3,18,4-16,3,4,Southern,Emerald
281801,0014K00047000000,"862 LILLIAN ST, PITTSBURGH, PA 15210",0014K00047,15000,1987-02-02,1987-02-02,2016-10-28,2016-10-28,40.41861061141904,-79.99121957099062,Allentown,3,18,4-6,3,4,Southern,Emerald
281802,0014A00222000B00,"EDGEMONT ST, PITTSBURGH, PA 15210",0014A00222B,16069,1994-09-16,1994-09-16,2016-10-28,2016-10-28,40.42234270726205,-79.99634227591628,Allentown,3,18,4-5,3,4,Southern,Emerald
281803,0003N00154000000,"619 EUREKA ST, PITTSBURGH, PA 15210",0003N00154,0,1995-12-04,1995-12-04,2016-10-28,2016-10-28,40.423954475541386,-79.99656172386953,Allentown,3,18,4-5,3,4,Southern,Emerald
281804,0014B00405000000,"916 EXCELSIOR ST, PITTSBURGH, PA 15210",0014B00405,1,1998-12-04,2005-10-04,2016-10-28,2016-10-28,40.42296125962852,-79.99123497135906,Allentown,3,18,4-5,3,4,Southern,Emerald
281805,0014C00037000000,"936 EXCELSIOR ST, PITTSBURGH, PA 15210",0014C00037,2000,2001-03-29,2006-05-08,2016-10-28,2016-10-28,40.42325362142533,-79.99040820940634,Allentown,3,18,4-5,3,4,Southern,Emerald
281806,0014B00403000000,"908 EXCELSIOR ST, PITTSBURGH, PA 15210",0014B00403,4500,2002-04-11,2009-04-17,2016-10-28,2016-10-28,40.42288379100732,-79.9913642355769,Allentown,3,18,4-5,3,4,Southern,Emerald
281807,0014C00036000000,"EXCELSIOR ST, PITTSBURGH, PA 15210",0014C00036,14950,1996-07-11,1996-07-11,2016-10-28,2016-10-28,40.42322126898,-79.99048209698,Allentown,3,18,4-5,3,4,Southern,Emerald
281808,0014B00090000000,"721 CARNIVAL WAY, PITTSBURGH, PA 15210",0014B00090,50000,2002-02-11,2015-11-02,2016-10-28,2016-10-28,40.42243005780284,-79.99502661570993,Allentown,3,18,4-5,3,4,Southern,Emerald
281809,0014B00327000000,"1120 ARLINGTON AVE, PITTSBURGH, PA 15203",0014B00327,1,2002-03-05,2007-02-12,2016-10-28,2016-10-28,40.42236312683266,-79.99183308332557,Allentown,3,18,4-5,3,4,Southern,Emerald
281810,0014B00328000A00,"1114 ARLINGTON AVE, PITTSBURGH, PA 15203",0014B00328A,8000,2002-03-14,2005-01-04,2016-10-28,2016-10-28,40.422462173762895,-79.9916622658986,Allentown,3,18,4-5,3,4,Southern,Emerald
281811,0003R00321000000,"919 EUREKA ST, PITTSBURGH, PA 15210",0003R00321,18900,2002-02-22,2006-01-31,2016-10-28,2016-10-28,40.42403715580585,-79.99107915732876,Allentown,3,18,4-5,3,4,Southern,Emerald
281812,0014A00296000000,"27 MILLBRIDGE ST, PITTSBURGH, PA 15210",0014A00296,9000,1990-05-24,1990-05-24,2016-10-28,2016-10-28,40.42336652629504,-79.99562215810921,Allentown,3,18,4-5,3,4,Southern,Emerald
281813,0014A00222000C00,"629 EDGEMONT ST, PITTSBURGH, PA 15210",0014A00222C,200,2002-03-05,2007-02-14,2016-10-28,2016-10-28,40.42229822124619,-79.9963412019201,Allentown,3,18,4-5,3,4,Southern,Emerald
281814,0014C00006000000,"924 EUREKA ST, PITTSBURGH, PA 15210",0014C00006,50000,2002-08-14,2004-06-01,2016-10-28,2016-10-28,40.42356630966337,-79.99078508938172,Allentown,3,18,4-5,3,4,Southern,Emerald
281815,0014C00001000000,"914 CERES WAY, PITTSBURGH, PA 15210",0014C00001,0,,,2016-10-28,2016-10-28,40.423434318214085,-79.99106739805721,Allentown,3,18,4-5,3,4,Southern,Emerald
281816,0003R00328000000,"938 EUREKA ST, PITTSBURGH, PA 15210",0003R00328,1,2000-12-26,2003-02-21,2016-10-28,2016-10-28,40.42370368302621,-79.99024362255041,Allentown,3,18,4-5,3,4,Southern,Emerald
281817,0014B00416000000,"912 CERES WAY, PITTSBURGH, PA 15210",0014B00416,1,1988-11-28,1988-11-28,2016-10-28,2016-10-28,40.4234441398093,-79.99115976674653,Allentown,3,18,4-5,3,4,Southern,Emerald
281818,0014C00372000000,"944 MANTON WAY, PITTSBURGH, PA 15210",0014C00372,0,1993-02-09,1993-02-09,2016-10-28,2016-10-28,40.421211583064206,-79.9904002007119,Allentown,3,18,4-6,3,4,Southern,Emerald
281819,0014A00222000A00,"627 EDGEMONT ST, PITTSBURGH, PA 15210",0014A00222A,16000,2002-03-20,2003-02-21,2016-10-28,2016-10-28,40.42238172293679,-79.99634202306737,Allentown,3,18,4-5,3,4,Southern,Emerald
281820,0003N00164000000,"633 PETREL WAY, PITTSBURGH, PA 15210",0003N00164,15000,1994-05-04,1994-05-04,2016-10-28,2016-10-28,40.4239145891553,-79.99624263711853,Allentown,3,18,4-5,3,4,Southern,Emerald
281821,0014B00404000000,"910 EXCELSIOR ST, PITTSBURGH, PA 15210",0014B00404,1,2002-02-26,2003-02-11,2016-10-28,2016-10-28,40.422919085794206,-79.99129788539366,Allentown,3,18,4-5,3,4,Southern,Emerald
